address,Latitude,Longitude
경상북도 구미시 고아읍,36.2108711,128.3285585
경상북도 구미시 고아읍 문성리 146-7번지,36.1629001,128.3528723
경상북도 구미시 고아읍 문성리 41번지,36.1651758,128.3466914
경상북도 구미시 고아읍 문장로23길 4,36.1505831,128.3301377
경상북도 구미시 고아읍 봉한4길 19,36.183274,128.3520964
경상북도 구미시 고아읍 봉한4안길 15-10,36.182491,128.3532592
경상북도 구미시 고아읍 선산대로 630-10,36.1841807,128.3508586
경상북도 구미시 고아읍 선산대로 684-4 ((주)K.I.C),36.1896323,128.3481611
경상북도 구미시 고아읍 선산대로 684-6,36.189864,128.3481344
경상북도 구미시 고아읍 선산대로 707,36.1914257,128.3460532
경상북도 구미시 고아읍 선산대로 711 (,36.1919064,128.3459152
경상북도 구미시 고아읍 선산대로 729,36.1931508,128.345089
경상북도 구미시 고아읍 선산대로 739,36.1938367,128.345062
경상북도 구미시 고아읍 선산대로 976-12,36.2106312,128.3290507
경상북도 구미시 고아읍 송림2길 14 (한창운수사옥),36.1682246,128.3566076
경상북도 구미시 고아읍 송림2길 35 (선주전자공장),36.1701761,128.3574201
경상북도 구미시 고아읍 송림리 249-1번지,36.1691109,128.3567761
경상북도 구미시 고아읍 송평구길 10,36.1673112,128.362449
경상북도 구미시 고아읍 송평구길 14,36.1674947,128.3628656
경상북도 구미시 고아읍 송평로1길 50,36.1684723,128.3551326
경상북도 구미시 고아읍 신촌2길 25 (대광전자) (,36.1997536,128.2922514
경상북도 구미시 고아읍 예강1길 12,36.1997878,128.3381425
경상북도 구미시 고아읍 예강3길 12-12,36.2003268,128.3365102
경상북도 구미시 고아읍 오로6길 1,36.2263159,128.3112305
경상북도 구미시 고아읍 오로6길 19,36.2263159,128.3112305
경상북도 구미시 고아읍 오로6길 26,36.2256958,128.3129845
경상북도 구미시 고아읍 오로6길 34,36.2255884,128.3137082
경상북도 구미시 고아읍 오로6길 36,36.2260695,128.3141273
경상북도 구미시 고아읍 오로리 342-1번지,36.2166123,128.3155743
경상북도 구미시 고아읍 오로리 60-1번지,36.2179516,128.323312
경상북도 구미시 고아읍 오로리 산 24-6번지,36.2244927,128.310854
경상북도 구미시 고아읍 외예6길 29 (일상전자공장) (,36.181768,128.2850216
경상북도 구미시 고아읍 원대로 292,36.1776788,128.3203373
경상북도 구미시 고아읍 원대로 338 (,36.1807067,128.3174302
경상북도 구미시 고아읍 원대로 354,36.1821238,128.3166711
경상북도 구미시 고아읍 원대로 405-4,36.1870556,128.3146007
경상북도 구미시 고아읍 원대로13길 45-16,36.1778625,128.3132321
경상북도 구미시 고아읍 원대로13길 66,36.1795501,128.3113867
경상북도 구미시 고아읍 원대로13길 80,36.1789989,128.3118444
경상북도 구미시 고아읍 원대로20길 3,36.1948618,128.3169058
경상북도 구미시 고아읍 원대로21안길 13-5,36.1960393,128.315743
경상북도 구미시 고아읍 원대로9길 17,36.168594,128.3196378
경상북도 구미시 고아읍 원호리 478 번지,36.153482,128.3348663
경상북도 구미시 고아읍 이례로 24-3,36.2046421,128.3184065
경상북도 구미시 고아읍 이례로 26 (,36.2054336,128.3186721
경상북도 구미시 고아읍 이례로 34 (,36.2058042,128.3193053
경상북도 구미시 고아읍 이례로 53,36.2064456,128.3211128
경상북도 구미시 고아읍 이례로 60,36.2061334,128.3219011
경상북도 구미시 고아읍 이례리-472번지,36.2061334,128.3219011
경상북도 구미시 고아읍 파산2길 11,36.2065783,128.3083432
경상북도 구미시 고아읍 파산2길 19-15,36.2048276,128.3078025
경상북도 구미시 고아읍 파산2길 45,36.2044632,128.306857
경상북도 구미시 고아읍 파산2길 52,36.2039851,128.3070342
경상북도 구미시 고아읍 파산2길 53 (길본산업공장) (,36.2045517,128.3071498
경상북도 구미시 고아읍 파산2길 56,36.2053088,128.3075799
경상북도 구미시 고아읍 파산2길 57 (지산수지공장),36.2045559,128.3075913
경상북도 구미시 고아읍 파산2길 9,36.2064937,128.3089868
경상북도 구미시 고아읍 파산3길 31-6,36.2089342,128.3055443
경상북도 구미시 고아읍 파산3길 47,36.2102446,128.3055539
경상북도 구미시 고아읍 파산리 164번지,36.2072668,128.3118323
경상북도 구미시 고아읍 파산리 262-2번지,36.2100226,128.3052983
경상북도 구미시 고아읍 포아로 622-11,36.1924859,128.2873321
경상북도 구미시 고아읍 포아로 636-12 (한세약품),36.1931971,128.2871876
경상북도 구미시 고아읍 포아로 732,36.1982488,128.2869072
경상북도 구미시 고아읍 포아로 885,36.2045534,128.3011435
경상북도 구미시 고아읍 포아로 891,36.2050352,128.3016603
경상북도 구미시 고아읍 포아로 916,36.2055498,128.3045259
경상북도 구미시 고아읍 포아로 980-13,36.2069966,128.3110773
경상북도 구미시 고아읍 포아로 980-14,36.2065708,128.3102026
경상북도 구미시 고아읍 항곡7길 32 (대양전자),36.1911079,128.3437313
경상북도 구미시 고아읍 항곡7길 42,36.191584,128.3427182
경상북도 구미시 광평길 49 (광평동),36.1050181,128.3659356
경상북도 구미시 광평동 439번지,36.1063186,128.3576071
경상북도 구미시 괴곡3길 87 (해평면),36.1784558,128.4187164
경상북도 구미시 구미대로 280-13 (광평동),36.1123054,128.3646354
경상북도 구미시 구미대로 280-15 (광평동),36.1124336,128.3645793
"경상북도 구미시 구미대로 350-27 (신평동) 3D프린팅제조혁신센터 302,310,311호",36.1159185,128.3643977
경상북도 구미시 구미대로 350-27 (신평동) 3D프린팅제조혁신센터 305호,36.1159185,128.3643977
경상북도 구미시 구미대로 350-27 (신평동) 금오공과대학교 신평동캠퍼스 쓰리디프린팅제조혁신센터 304호,36.1185432,128.3659416
"경상북도 구미시 구미대로 350-27, 303호(쓰리디프린텡제조혁신센터)(신평동)",36.1191045,128.3653044
"경상북도 구미시 구미대로 350-27, 308호 (신평동)",36.1141637,128.364394
"경상북도 구미시 구미대로 350-27, 3D프린팅제조혁신센터 209-1호 (신평동)",36.1191045,128.3653044
"경상북도 구미시 구미대로 350-27, 3D프린팅제조혁신센터 305호 (신평동)",36.1191045,128.3653044
"경상북도 구미시 구미대로 350-27, IT의료융합기술센터 1층 (신평동)",36.1191045,128.3653044
"경상북도 구미시 구미대로 350-27, IT의료융합기술센터 301호외 (신평동)",36.1191045,128.3653044
"경상북도 구미시 구미대로 350-27, IT의료융합기술센터 시험연구동 B408호 (신평동)",36.1191045,128.3653044
"경상북도 구미시 구미대로 350-27, 경북산학융합본부 406호 (신평동)",36.1191045,128.3653044
"경상북도 구미시 구미대로 350-27, 경북산학융합지구 구미기업관 506,507,509,510,411호 (신평동)",36.1191045,128.3653044
경상북도 구미시 구미대로2길 14-2 (임은동),36.0869592,128.3628738
경상북도 구미시 구미중앙로 298 (송정동),36.1167738,128.3538677
경상북도 구미시 구미중앙로35길 13 (원평동),36.1241204,128.3466315
경상북도 구미시 금오대로 347 (오태동),36.0758492,128.3500504
경상북도 구미시 금오대로 493 (임은동),36.0861023,128.3601061
경상북도 구미시 금오대로16길 47 (오태동),36.0689606,128.3543728
경상북도 구미시 금오대로20길 41-2 (오태동),36.0696258,128.3546445
경상북도 구미시 금오대로20길 48 (오태동),36.0692814,128.3546807
경상북도 구미시 금오대로24길 16 (오태동),36.0712792,128.3534329
경상북도 구미시 금오산로 37 (원평동),36.1320228,128.3272212
경상북도 구미시 금전동 39번지,36.1290537,128.4681886
경상북도 구미시 금전동 835-1번지,36.125987,128.4514938
경상북도 구미시 남통동 24-4번지,36.1290454,128.3179964
경상북도 구미시 남통동 24번지,36.1292961,128.3162321
경상북도 구미시 대학로 61 (양호동) 119호(거의동 벤처창업관),36.1461499,128.3924973
경상북도 구미시 대학로 61 (양호동) 금오공과대학교 112호,36.1460625,128.3934375
경상북도 구미시 대학로 61 (양호동) 벤처창업관 219호,36.1461499,128.3924973
"경상북도 구미시 대학로 61 (양호동, 금오공과대학교) 벤처창업관 407호",36.1460625,128.3934375
"경상북도 구미시 대학로 61, 114호 (양호동)",36.1431727,128.3856386
"경상북도 구미시 대학로 61, 301호(금오공과대학교 벤처창업관) (양호동)",36.1460625,128.3934375
"경상북도 구미시 대학로 61, 금오공과대학교 벤처창업관 207호 (양호동)",36.1460625,128.3934375
"경상북도 구미시 대학로 61, 금오공과대학교 벤처창업관 409, 409-1호 (양호동)",36.1460625,128.3934375
"경상북도 구미시 대학로 61, 금오공과대학교 벤처창업관 410호 (양호동)",36.1460625,128.3934375
"경상북도 구미시 대학로 61, 금오공과대학교 이오스관 118호 (양호동)",36.1429829,128.3929012
"경상북도 구미시 대학로 61, 금오공과대학교 이오스관119호 (양호동)",36.1429829,128.3929012
"경상북도 구미시 대학로 61, 금오공대 벤처창업관 408호 (양호동, 금오공과대학교)",36.1460625,128.3934375
"경상북도 구미시 대학로 61, 금오공대 이오스관 119호 (양호동)",36.1461499,128.3924973
"경상북도 구미시 대학로 61, 금오공대 이오스관 410호 (양호동)",36.1461499,128.3924973
"경상북도 구미시 대학로 61, 벤처관 222호 (양호동, 금오공과대학교)",36.1460625,128.3934375
"경상북도 구미시 대학로 61, 벤처창업관 104호 (양호동, 금오공과대학교)",36.1460625,128.3934375
"경상북도 구미시 대학로 61, 벤처창업관 214 (거의동, 금오공과대학교)",36.1460625,128.3934375
"경상북도 구미시 대학로 61, 이오스관 209호 (양호동, 금오공과대학교)",36.1461499,128.3924973
"경상북도 구미시 대학로 61, 이오스관 303호 (양호동)",36.1461499,128.3924973
"경상북도 구미시 대학로 61, 창업보육센터 벤처창업관 211,212호 (거의동, 금오공과대학교)",36.1461499,128.3924973
"경상북도 구미시 대학로 61, 창업진흥센터 이오스관 118호, 221호 (양호동)",36.1461499,128.3924973
경상북도 구미시 도개면 도군로 478-23,36.2760577,128.3886297
경상북도 구미시 도개면 도안로 308,36.3096951,128.3248077
경상북도 구미시 도개면 도안로 442 (구봉정미소),36.3243839,128.3138698
경상북도 구미시 도개면 도안로 462 ((주)보림개발),36.3259595,128.3135147
경상북도 구미시 도개면 도안로 476,36.3096951,128.3248077
경상북도 구미시 도개면 도안로 484,36.3283551,128.3130982
경상북도 구미시 도개면 신곡길 11,36.3056278,128.3289638
경상북도 구미시 도개면 신곡길 17,36.3058351,128.329282
경상북도 구미시 도개면 신림도개길 96,36.2884859,128.3575058
경상북도 구미시 도개면 신림리 649-1번지,36.276563,128.3492769
경상북도 구미시 도개면 용산가산길 397-23 (,36.3137928,128.3057135
경상북도 구미시 도개면 월림4길 37,36.309425,128.3311476
경상북도 구미시 도량동 612번지,36.139522,128.3316347
경상북도 구미시 도봉로1길 8-8 (봉곡동),36.1405212,128.3129936
경상북도 구미시 무을면 무을들길 207 (무을면 원리 8320000 공장 (무을농업협동조),36.2497288,128.2101147
경상북도 구미시 무을면 삼원로 334 (,36.2395013,128.2053114
경상북도 구미시 무을면 상무로 947-13,36.2619425,128.1936771
경상북도 구미시 무을면 오가리 516-1번지,36.2652478,128.1790302
경상북도 구미시 무을면 원리 산 54-2번지,36.2392163,128.2053896
경상북도 구미시 박정희로 409 (송정동),36.1141068,128.3545078
경상북도 구미시 박정희로27길 28 (광평동),36.1097919,128.3548835
경상북도 구미시 봉곡남로16길 15-22 (봉곡동),36.1484175,128.3143185
경상북도 구미시 봉곡남로9길 4 (봉곡동),36.1498041,128.3096389
경상북도 구미시 봉곡로21길 21 (봉곡동),36.1535383,128.3085311
"경상북도 구미시 봉곡로5길 10 (봉곡동, 백천전자)",36.144009,128.3090758
"경상북도 구미시 봉곡북로 37, 2층 (봉곡동)",36.1541649,128.30937
경상북도 구미시 봉곡북로 48 (봉곡동),36.1540181,128.3091209
경상북도 구미시 봉곡북로1길 16 (봉곡동),36.156658,128.3040875
경상북도 구미시 봉곡북로5길 29-6 (봉곡동),36.1572017,128.3048056
경상북도 구미시 봉곡북로5길 3 (봉곡동),36.154722,128.3045293
경상북도 구미시 봉곡서로11길 23 (봉곡동),36.1573766,128.3043973
경상북도 구미시 봉곡서로11안길 5-12(봉곡동),36.1580485,128.3045821
"경상북도 구미시 부곡1길 38-4, 구미1대학 창업보육센터 (부곡동)",36.1517039,128.2909951
경상북도 구미시 부곡동 236-3번지,36.1496406,128.2987798
경상북도 구미시 비산동 347-3번지,36.1204308,128.3787777
경상북도 구미시 비산동 349-1번지,36.1199679,128.3772469
경상북도 구미시 비산동 82-6번지,36.1232146,128.3811329
경상북도 구미시 비산로 107-11 (비산동),36.1205883,128.3836796
경상북도 구미시 비산로 115-10 (비산동),36.1202818,128.3845369
"경상북도 구미시 비산로 115-12 (비산동, 대한정밀)",36.1204484,128.3845843
경상북도 구미시 비산로 115-18 (비산동),36.1202364,128.3840678
경상북도 구미시 비산로 115-2 (비산동),36.1200034,128.3847843
"경상북도 구미시 비산로 115-22 (비산동, 이화엔지니어링)",36.1199281,128.3841041
경상북도 구미시 비산로 115-6 (비산동),36.1200683,128.384488
경상북도 구미시 비산로 27 (비산동),36.1196985,128.374925
경상북도 구미시 비산로 39-11 (비산동),36.1205304,128.3757766
경상북도 구미시 비산로 39-5 (비산동),36.1200697,128.3758144
경상북도 구미시 비산로 39-6 (비산동),36.1200515,128.3761742
경상북도 구미시 비산로 39-8 (비산동),36.1202076,128.3761028
경상북도 구미시 비산로 41 (비산동),36.1196981,128.3762059
경상북도 구미시 비산로 61 (비산동),36.1200595,128.378186
경상북도 구미시 비산로 69 (비산동),36.1196842,128.3794695
경상북도 구미시 비산로 71-2 (비산동),36.1199317,128.3795674
경상북도 구미시 비산로 75 (비산동),36.1197556,128.3802586
경상북도 구미시 비산로 79-10 (비산동),36.1201846,128.3813871
경상북도 구미시 비산로 79-9 (비산동),36.1202746,128.3808598
경상북도 구미시 비산로1길 46 (비산동),36.1233989,128.3747216
경상북도 구미시 비산로1안길 14 (비산동),36.1202235,128.3756252
경상북도 구미시 비산로1안길 23 (비산동),36.1208211,128.3767511
경상북도 구미시 비산로3길 11 (비산동),36.1202984,128.3770474
경상북도 구미시 비산로3길 12 (비산동),36.1205928,128.3777243
경상북도 구미시 비산로3길 14-10 (비산동),36.1203554,128.3781008
경상북도 구미시 비산로3길 14-12 (비산동),36.1203445,128.378704
경상북도 구미시 비산로3길 14-28 (비산동),36.1206553,128.37848
경상북도 구미시 비산로3길 14-36 (비산동) (,36.1205622,128.379116
경상북도 구미시 비산로3길 14-40 (비산동),36.1206087,128.3795317
경상북도 구미시 비산로3길 19-2 (비산동),36.1214443,128.3772096
경상북도 구미시 비산로3길 31 (비산동),36.1223619,128.3771873
경상북도 구미시 비산로3길 41 (비산동) (,36.1233008,128.3766674
경상북도 구미시 비산로3길 41-1 (비산동),36.1233699,128.3770699
경상북도 구미시 비산로3길 42 (비산동),36.1234018,128.3778077
경상북도 구미시 비산로3길 43 (비산동),36.123649,128.3771701
경상북도 구미시 비산로3길 9 (비산동),36.1202984,128.3770474
경상북도 구미시 비산로5길 10 (비산동),36.1218133,128.3804599
경상북도 구미시 비산로5길 12 (비산동),36.1206273,128.3801995
경상북도 구미시 비산로5길 18-4 (비산동),36.1213471,128.3802929
경상북도 구미시 비산로5길 22 (비산동),36.1213955,128.3800921
경상북도 구미시 비산로5길 27 (비산동),36.1220278,128.3796663
경상북도 구미시 비산로5길 28-21 (비산동),36.1222014,128.3809036
경상북도 구미시 비산로5길 29-11 (비산동),36.1220468,128.3790721
경상북도 구미시 비산로5길 29-19 (비산동),36.1215677,128.3783755
경상북도 구미시 비산로5길 29-7 (비산동),36.1222198,128.3793584
경상북도 구미시 비산로5길 44 (비산동),36.1235067,128.3802511
경상북도 구미시 비산로5길 45 (비산동),36.1218133,128.3804599
경상북도 구미시 비산로5길 46 (비산동),36.1236654,128.3802308
경상북도 구미시 비산로5길 6 (비산동),36.120006,128.3802931
경상북도 구미시 비산로5길 8 (비산동),36.1202308,128.3801631
경상북도 구미시 비산로5안길 10 (비산동),36.1206732,128.3810606
경상북도 구미시 비산로5안길 15-2 (비산동),36.1209661,128.3816419
"경상북도 구미시 비산로5안길 19 (비산동, 한국정밀)",36.1208734,128.3818903
경상북도 구미시 비산로5안길 19-6 (비산동),36.1213001,128.3823378
"경상북도 구미시 비산로5안길 5-4, 1층 (비산동)",36.1210078,128.380729
경상북도 구미시 비산로5안길 5-58 (비산동),36.1209644,128.3804644
경상북도 구미시 비산로7길 14 (비산동),36.1206153,128.3828188
경상북도 구미시 비산로7길 14-16 (비산동),36.1206161,128.3842708
경상북도 구미시 비산로7길 14-20 (비산동),36.1206594,128.3848131
경상북도 구미시 비산로7길 14-3 (비산동),36.1209627,128.3829861
경상북도 구미시 비산로7길 14-5 (비산동),36.1209403,128.3832381
경상북도 구미시 비산로7길 20-4 (비산동),36.1212117,128.3832006
경상북도 구미시 비산로7길 26-8 (비산동),36.1214654,128.383054
경상북도 구미시 비산로7길 3 (비산동),36.1200469,128.3821618
경상북도 구미시 비산로7길 38-4 (비산동),36.1230401,128.3827229
경상북도 구미시 비산로7길 39-1 (비산동),36.1230897,128.3821432
경상북도 구미시 비산로7길 7 (비산동),36.1202106,128.3825714
경상북도 구미시 비산로7길 8-27 (비산동),36.1201317,128.3832608
경상북도 구미시 비산로7길 9 (비산동),36.1202923,128.3823785
경상북도 구미시 비산로7길 9-7 (비산동),36.1204321,128.3817882
경상북도 구미시 산동면 임천인덕로 287-21,36.160414,128.457883
경상북도 구미시 산동읍 강동로 1089-18,36.166071,128.4277461
경상북도 구미시 산동읍 강동로 1126 (삼오금형공장),36.1668972,128.4243976
경상북도 구미시 산동읍 강동로 1148,36.1660235,128.4225951
경상북도 구미시 산동읍 강동로 677,36.1604214,128.4717538
경상북도 구미시 산동읍 강동로 677 (비앤피시스템),36.1604214,128.4717538
경상북도 구미시 산동읍 강동로 816-32,36.1671335,128.4582167
경상북도 구미시 산동읍 강동로 816-32 ((주)엠엔티전자),36.1671335,128.4582167
경상북도 구미시 산동읍 강동로 836-21 (진성시스템),36.166552,128.4556712
경상북도 구미시 산동읍 강동로 902-4,36.1660491,128.4485002
경상북도 구미시 산동읍 강동로 902-8,36.1666499,128.4488348
경상북도 구미시 산동읍 동곡3길 16,36.1747029,128.4410637
경상북도 구미시 산동읍 동곡3길 21 (동성섬유(주)),36.1754301,128.4406053
경상북도 구미시 산동읍 동곡3길 22,36.1751672,128.441252
경상북도 구미시 산동읍 동곡3길 25,36.1758033,128.4408342
경상북도 구미시 산동읍 동곡3길 28,36.1755138,128.4416241
경상북도 구미시 산동읍 동곡3길 33,36.1762472,128.441198
경상북도 구미시 산동읍 동곡3길 34,36.1761445,128.44191
경상북도 구미시 산동읍 동곡3길 38,36.1763351,128.44203
경상북도 구미시 산동읍 동곡3길 39,36.1769533,128.4415688
경상북도 구미시 산동읍 동곡3길 42,36.1767508,128.4422202
경상북도 구미시 산동읍 동곡3길 45,36.1773405,128.4419078
경상북도 구미시 산동읍 동곡3길 50,36.1773116,128.4426558
경상북도 구미시 산동읍 동곡3길 51 ((주)씨엠에이텍),36.1779598,128.4421069
경상북도 구미시 산동읍 동곡리 산 63번지,36.1773313,128.4422035
경상북도 구미시 산동읍 동백로 237,36.1859548,128.4506493
경상북도 구미시 산동읍 동백로 249,36.1865997,128.4512223
경상북도 구미시 산동읍 동백로 257-7 (산동읍 동곡리 45-2 창고시설 (김무권)),36.1885732,128.4503397
경상북도 구미시 산동읍 동백로 360,36.190086,128.4566492
경상북도 구미시 산동읍 봉산리 1052-3번지,36.142772,128.4430984
경상북도 구미시 산동읍 봉산리 435-1번지,36.1427779,128.4514312
경상북도 구미시 산동읍 봉산리 436-1번지,36.1430247,128.4519304
경상북도 구미시 산동읍 봉산리 436-2번지,36.1435163,128.4518344
경상북도 구미시 산동읍 봉산리 918-11번지,36.1408466,128.4407375
경상북도 구미시 산동읍 봉산리 산 26-6번지,36.1441977,128.4511115
경상북도 구미시 산동읍 부처방길 103,36.1316558,128.474452
경상북도 구미시 산동읍 성림길 26 ((주)대평산업개발),36.1597788,128.4194065
경상북도 구미시 산동읍 성림길 35-11 (,36.1618275,128.4199362
경상북도 구미시 산동읍 성림길 35-2,36.160831,128.4203543
경상북도 구미시 산동읍 성수1길 23,36.1578303,128.4087594
경상북도 구미시 산동읍 성수2길 43-3,36.1610697,128.4107749
경상북도 구미시 산동읍 성수3길 32,36.1594174,128.4137316
경상북도 구미시 산동읍 성수4길 11,36.1577001,128.4186916
경상북도 구미시 산동읍 성수4길 18,36.1590653,128.4164938
경상북도 구미시 산동읍 성수4길 21,36.1585295,128.4174057
경상북도 구미시 산동읍 성수4길 28,36.1576654,128.41735
경상북도 구미시 산동읍 성수4길 44,36.157309,128.4189896
경상북도 구미시 산동읍 성수4길 54,36.1567905,128.4193347
경상북도 구미시 산동읍 성수리 156-3번지,36.1619441,128.4133525
경상북도 구미시 산동읍 신당리 194-1번지,36.1556213,128.4363035
경상북도 구미시 산동읍 신당리 231-7번지,36.1559375,128.4373289
경상북도 구미시 산동읍 신당리 274-1번지,36.162664,128.4343008
경상북도 구미시 산동읍 신당리 292-3번지,36.1635926,128.4337313
경상북도 구미시 산동읍 신당리 557번지,36.1503256,128.4305044
경상북도 구미시 산동읍 신당리 602번지,36.1490892,128.4299542
경상북도 구미시 산동읍 옥계2공단로 636-5 (성화수출포장공장) (,36.1611829,128.4168796
"경상북도 구미시 산동읍 옥계2공단로 642, 1층",36.1622097,128.4162837
경상북도 구미시 산동읍 옥계2공단로 651-5,36.1624267,128.4147944
경상북도 구미시 산동읍 인덕1길 131,36.167533,128.4645034
경상북도 구미시 산동읍 인덕1길 131 302호(경운대학교 창업보육센터),36.1733919,128.4641366
"경상북도 구미시 산동읍 인덕1길 131, (경운대학교창업보육센터)201,209호",36.1733919,128.4641366
"경상북도 구미시 산동읍 인덕1길 131, 101호(경운대학교 창업보육센터)",36.1733919,128.4641366
"경상북도 구미시 산동읍 인덕1길 131, 102호, 경운대학교 창업보육센터",36.1733919,128.4641366
"경상북도 구미시 산동읍 인덕1길 131, 107호(경운대학교 창업보육센터)",36.1733919,128.4641366
"경상북도 구미시 산동읍 인덕1길 131, 202호(경운대학교 창업보육센터)",36.1733919,128.4641366
"경상북도 구미시 산동읍 인덕1길 131, 208호(경운대학교 창업보육센터)",36.1733919,128.4641366
"경상북도 구미시 산동읍 인덕1길 131, 경운대학교 창업보육센터 103",36.1733919,128.4641366
"경상북도 구미시 산동읍 인덕1길 131, 경운대학교 창업보육센터 104호",36.1733919,128.4641366
"경상북도 구미시 산동읍 인덕1길 131, 경운대학교 창업보육센터 301호",36.1733919,128.4641366
"경상북도 구미시 산동읍 인덕1길 131, 경운대학교 창업보육센터 306호",36.1733919,128.4641366
"경상북도 구미시 산동읍 인덕1길 131, 경운대학교 창업보육센터 309",36.1733919,128.4641366
"경상북도 구미시 산동읍 인덕1길 131, 경운대학교 창업보육센터 309호",36.1733919,128.4641366
"경상북도 구미시 산동읍 인덕1길 131, 경운대학교 창업보육센터 404호",36.1733919,128.4641366
"경상북도 구미시 산동읍 인덕1길 131, 경운대학교 창업보육센터 407호",36.1733919,128.4641366
"경상북도 구미시 산동읍 인덕1길 131, 경운대학교 창업보육센터 413호",36.1733919,128.4641366
"경상북도 구미시 산동읍 인덕1길 131, 경운대학교 창업보육센터 414호",36.1733919,128.4641366
"경상북도 구미시 산동읍 인덕1길 131, 경운대학교 창업보육센터206호",36.1733919,128.4641366
경상북도 구미시 산동읍 인덕3길 3,36.1661927,128.4536929
경상북도 구미시 산동읍 인덕3길 4-7 (현일엔지니어링),36.1662322,128.4546868
경상북도 구미시 산동읍 인덕리 55번지 경운대학교 2호관 1104동 2호,36.1677868,128.4676712
경상북도 구미시 산동읍 인덕리 산 27-3번지,36.1663752,128.4492645
경상북도 구미시 산동읍 임봉길 19-564,36.148476,128.4565935
경상북도 구미시 산동읍 임천리 217-10번지,36.1337994,128.4719755
경상북도 구미시 산동읍 임천리 217번지,36.1337994,128.4719755
경상북도 구미시 산동읍 임천인덕로 250-1,36.1582278,128.462027
경상북도 구미시 산동읍 임천인덕로 252,36.1585151,128.4616063
경상북도 구미시 산동읍 임천인덕로 260,36.1586948,128.4612828
경상북도 구미시 산동읍 임천인덕로 278,36.1599011,128.460942
경상북도 구미시 산동읍 적림2길 34,36.1717909,128.4318923
경상북도 구미시 산동읍 적림2길 6-3,36.1696884,128.4336003
경상북도 구미시 산동읍 적림3길 112 (,36.1767838,128.4279355
경상북도 구미시 산동읍 적림3길 116,36.1771441,128.4279986
경상북도 구미시 산동읍 적림3길 120,36.1774095,128.4281212
경상북도 구미시 산업로 258 (원평동),36.12466,128.3486806
경상북도 구미시 산책길 33-4 (원평동),36.123832,128.3320975
경상북도 구미시 산호대로 1210 (금전동),36.125987,128.4514938
경상북도 구미시 삼일로 12 (진평동) 수빌딩 5층,36.1059517,128.4177871
경상북도 구미시 상모동 303-5번지,36.0874377,128.3526524
"경상북도 구미시 상사동로 159, 삼득빌딩 2층 (사곡동)",36.098766,128.3587423
경상북도 구미시 상사동로 83 (임은동),36.092131,128.3589431
"경상북도 구미시 상사동로 98-1, 1층 2호 (사곡동)",36.0934107,128.3595775
"경상북도 구미시 상사동로24길 18 (사곡동, 라이프파크빌301동)",36.0987131,128.3607333
"경상북도 구미시 상사동로28길 18, 프린스빌딩 (사곡동)",36.1007664,128.3609981
"경상북도 구미시 상사서로 182, 3층 (사곡동)",36.0984096,128.3576568
경상북도 구미시 새마을로 194 (사곡동) (,36.1032679,128.3575533
경상북도 구미시 선기로 119 (선기동) (총,36.1294771,128.3104411
경상북도 구미시 선기로3길 23 (남통동),36.1284031,128.3151653
경상북도 구미시 선기로3길 31 (남통동),36.1285587,128.3156247
경상북도 구미시 선산대로 87-2 (지산동),36.1379039,128.3457525
경상북도 구미시 선산읍 김선로 573,36.2135432,128.2597788
경상북도 구미시 선산읍 김선로 600-16 (,36.2124433,128.2632319
경상북도 구미시 선산읍 김선로 600-24,36.2121601,128.2637303
경상북도 구미시 선산읍 내고3길 85-30 (서진산업),36.2223067,128.2645763
경상북도 구미시 선산읍 내고3길 85-38 (녹명전자) (,36.2222883,128.2651424
경상북도 구미시 선산읍 대조오목길 560-9,36.2449413,128.2616996
경상북도 구미시 선산읍 대조오목길 566-6,36.2450635,128.2614631
경상북도 구미시 선산읍 독동리 618번지,36.245056,128.3258392
경상북도 구미시 선산읍 동교3길 14,36.2470086,128.3019661
경상북도 구미시 선산읍 동교3길 28-7,36.2483259,128.3010332
경상북도 구미시 선산읍 동교3길 6-20,36.247503,128.3028304
경상북도 구미시 선산읍 동교5길 28-8 (우진산업제조업),36.2495424,128.3014807
경상북도 구미시 선산읍 동교길 12,36.2442478,128.3038158
경상북도 구미시 선산읍 봉곡리 240-1번지,36.2489948,128.2639341
경상북도 구미시 선산읍 북산3길 48,36.21908,128.2645999
경상북도 구미시 선산읍 북산6길 14-33,36.2124477,128.2649435
경상북도 구미시 선산읍 북산6길 26,36.2132607,128.2677434
경상북도 구미시 선산읍 북산리 336-6번지,36.2157467,128.2704379
경상북도 구미시 선산읍 선산중앙로9길 3,36.2406115,128.295769
경상북도 구미시 선산읍 선산중앙로9길 4,36.2410616,128.2959765
경상북도 구미시 선산읍 선상서로 165-36,36.2367411,128.2832385
경상북도 구미시 선산읍 선상서로 198,36.2410335,128.2811145
경상북도 구미시 선산읍 선상서로 264-22,36.2436502,128.2731842
경상북도 구미시 선산읍 선상서로 290-5 (,36.2433557,128.2715121
경상북도 구미시 선산읍 선상서로 338-16,36.2428774,128.2767643
경상북도 구미시 선산읍 선상서로 340 (죽장리 글로벌테크),36.246154,128.266339
경상북도 구미시 선산읍 선상서로 452,36.2428774,128.2767643
경상북도 구미시 선산읍 성황5길 6,36.2429169,128.2989526
경상북도 구미시 선산읍 습례리 317번지,36.2135604,128.2626384
경상북도 구미시 선산읍 원리 80-2번지,36.2265933,128.3401189
경상북도 구미시 선산읍 유학15길 30,36.23132,128.3342145
경상북도 구미시 선산읍 유학길 150-8,36.2603741,128.3287328
경상북도 구미시 선산읍 잿골길 13,36.2543903,128.3050179
경상북도 구미시 선산읍 조남로 159,36.2381711,128.3195203
경상북도 구미시 선산읍 조남로 72,36.2362323,128.3106746
경상북도 구미시 선산읍 죽장6길 5,36.2421337,128.2765691
경상북도 구미시 선산읍 포상12길 44,36.2368072,128.2612158
경상북도 구미시 송동로 42-14 (도량동),36.1368713,128.3253724
경상북도 구미시 송동로 42-61 (도량동),36.1368713,128.3253724
"경상북도 구미시 송동로 73, 112호.122호 (도량동)",36.1393097,128.3235658
경상북도 구미시 송원서로2길 3 (원평동),36.1238677,128.3434124
경상북도 구미시 송원서로6길 42-7 (원평동),36.1230299,128.3479613
경상북도 구미시 송정대로 121-5 (송정동),36.117994,128.351466
경상북도 구미시 수출대로 538 (인의동),36.1104052,128.4241352
경상북도 구미시 수출대로 9-1 (광평동),36.1115472,128.3649873
"경상북도 구미시 수출대로33길 39 (인의동, 인동상가)",36.1147468,128.4266523
경상북도 구미시 수출대로35길 8-14 (인의동) 나동,36.112125,128.428142
경상북도 구미시 신비로 123-17 (비산동),36.1220449,128.3747907
경상북도 구미시 신비로 131 (비산동),36.1218608,128.3760251
경상북도 구미시 신비로 135-4 (비산동),36.1221325,128.3767518
경상북도 구미시 신비로 135-6 (비산동),36.1222774,128.3765392
경상북도 구미시 신비로 143 (비산동),36.1221758,128.3776141
경상북도 구미시 신비로 146 (비산동),36.1218205,128.3776535
경상북도 구미시 신비로 153-13 (비산동),36.1235472,128.3782905
경상북도 구미시 신비로 153-17 (비산동),36.1231765,128.378361
경상북도 구미시 신비로 153-25 (비산동),36.1232887,128.3787992
경상북도 구미시 신비로 157 (비산동),36.1229875,128.3791299
경상북도 구미시 신비로 163 (비산동),36.1228677,128.3793982
경상북도 구미시 신비로 180 (비산동),36.1231358,128.380977
경상북도 구미시 신비로 188 (비산동),36.123274,128.3820241
경상북도 구미시 신시로 56 (형곡동),36.1128465,128.3396689
경상북도 구미시 신시로7길 16 (형곡동),36.1126055,128.3375752
경상북도 구미시 신시로7길 20-1 (형곡동),36.1127085,128.3371569
경상북도 구미시 신평동 142-5번지,36.1207495,128.3630993
경상북도 구미시 야은로 284 (봉곡동),36.1498289,128.311197
경상북도 구미시 야은로 37 (부곡동) 309호(구미대학교 벤처관),36.150841,128.289327
경상북도 구미시 야은로 37 (부곡동) 구미대학교 창업보육센터 벤처관 105호,36.1501467,128.2869389
"경상북도 구미시 야은로 37, 구미1대학창업보육센타 201호 (부곡동)",36.150841,128.289327
"경상북도 구미시 야은로 37, 구미대학교 창업보육센터 타운동 103호 (부곡동, 구미1대학)",36.150841,128.289327
"경상북도 구미시 야은로 37, 창업보육센터 타운동 104호(101,103) (부곡동, 구미1대학)",36.1513715,128.2890846
경상북도 구미시 야은로 424-8 (도량동),36.1361431,128.3220373
경상북도 구미시 야은로7길 14-21 (부곡동),36.1443264,128.3060059
경상북도 구미시 여헌로 94 (인의동),36.1099018,128.4257997
경상북도 구미시 여헌로10길 16 (인의동),36.1063323,128.4274409
경상북도 구미시 여헌로6길 11-2 (인의동),36.1028581,128.4253219
경상북도 구미시 역전로 33 (원평동),36.1317025,128.3325862
경상북도 구미시 오태1길 18-17 (오태동),36.07585,128.3550177
경상북도 구미시 오태3길 19 (오태동),36.0739708,128.3583477
경상북도 구미시 오태3길 21 (오태동),36.0743537,128.3583883
"경상북도 구미시 오태3길 48 (오태동, 새길산업공장)",36.0763478,128.359129
경상북도 구미시 오태3길 68 (오태동),36.0781295,128.3592137
경상북도 구미시 오태3길 74 (오태동),36.0788267,128.359339
"경상북도 구미시 오태3길 82-7, 오태동 485-2(오태동)",36.079265,128.37427
"경상북도 구미시 오태3길 83 (오태동, 오태동 493-12 제2종근린생활시설 (보성ENG)",36.0768734,128.3585324
경상북도 구미시 오태3길 86 (오태동) (,36.0797556,128.3582285
경상북도 구미시 오태8길 16 (오태동),36.0706119,128.3753536
경상북도 구미시 오태8길 28 (오태동),36.0708579,128.3759343
경상북도 구미시 오태8길 51-10 (오태동),36.0804434,128.3738459
경상북도 구미시 오태8길 51-12 (오태동),36.0683135,128.3773776
경상북도 구미시 오태길 100-72 (오태동),36.0779034,128.3741681
경상북도 구미시 오태길 142-2 (오태동),36.0725912,128.3611044
경상북도 구미시 오태동 0번지 37B 2L,36.0722054,128.3684836
경상북도 구미시 옥성면 산촌옥관로 20 (그린레미콘),36.3052287,128.2181929
경상북도 구미시 옥성면 산촌옥관로 8 (그린아스콘),36.3046094,128.2177937
경상북도 구미시 옥성면 상무로 1520,36.2513052,128.2520212
경상북도 구미시 옥성면 상무로 1520 (,36.2513052,128.2520212
경상북도 구미시 옥성면 선상동로 1449,36.3465138,128.2760955
경상북도 구미시 옥성면 선상동로 469-9,36.2958436,128.313899
경상북도 구미시 옥성면 선상동로 649,36.3004639,128.296802
경상북도 구미시 옥성면 선상동로 957 (,36.3062767,128.2766684
경상북도 구미시 옥성면 선상서로 514,36.2564779,128.2548732
경상북도 구미시 옥성면 옥관구평길 40,36.3368991,128.2621584
경상북도 구미시 옥성면 주아1길 18-8,36.2954957,128.2774698
경상북도 구미시 옥성면 주아3길 24,36.2895568,128.2681986
"경상북도 구미시 왕산로 71-10, A동 (임은동)",36.0872644,128.370054
"경상북도 구미시 왕산로 71-11 (임은동, 임은동 159-2 제2종근린생활시설)",36.0872644,128.370054
경상북도 구미시 왕산로3길 10 (임은동),36.0869751,128.3656587
경상북도 구미시 왕산로3길 26 (임은동),36.0877049,128.3669069
경상북도 구미시 왕산로3길 8 (임은동) (,36.0868665,128.365515
경상북도 구미시 왕산로5길 14-16 (임은동),36.0876331,128.3697603
경상북도 구미시 왕산로5길 14-35 (임은동),36.0881943,128.3701349
경상북도 구미시 왕산로5길 14-4 (임은동),36.0876706,128.3689854
경상북도 구미시 왕산로5길 6 (임은동),36.0873684,128.368481
경상북도 구미시 왕산로5길 7 (임은동),36.0873395,128.3676303
경상북도 구미시 원남로3길 56 (남통동),36.1307053,128.3234883
"경상북도 구미시 인동20길 5, MHK빌딩 202호 (진평동)",36.0978177,128.4267162
"경상북도 구미시 인동21길 22-11, 2층,3층 (인의동, SHELL-LINE사옥)",36.0980777,128.4306068
경상북도 구미시 인동32길 28-25 (진평동),36.0933894,128.4283025
경상북도 구미시 인동52길 33-59 (구평동),36.0978923,128.4499272
경상북도 구미시 인동52길 88 (구평동),36.0857576,128.4435633
경상북도 구미시 인동60길 6-17 (구평동),36.0907302,128.4557673
경상북도 구미시 인동가산로 311 (구평동),36.0930694,128.4439231
경상북도 구미시 인동가산로 384-23 (구평동),36.0909943,128.4538666
경상북도 구미시 인동가산로 384-36 (구평동),36.0891955,128.452878
경상북도 구미시 인동가산로 442-10 (구평동),36.0922937,128.4584304
"경상북도 구미시 인동가산로 442-15 (구평동, 기성엔지니어링)",36.0930286,128.3810605
경상북도 구미시 인동가산로 442-6 (구평동),36.0925814,128.4579168
경상북도 구미시 인동가산로 461 (신동),36.099355,128.462957
경상북도 구미시 인동가산로 510-18 (신동),36.1010599,128.4635145
경상북도 구미시 인동가산로 510-20 (신동),36.1010599,128.4635145
경상북도 구미시 인동중앙로10길 15-3 (인의동),36.1086343,128.4241023
경상북도 구미시 인의동 0번지 인의지구 23블럭 5롯트,36.1064013,128.4297482
경상북도 구미시 임수동 320,36.1201399,128.3976178
경상북도 구미시 임수로 83 (임수동),36.1172963,128.4006116
경상북도 구미시 임은5길 4-6 (임은동),36.0890903,128.3665946
경상북도 구미시 임은5길 8 (임은동),36.0892589,128.3659614
경상북도 구미시 임은길 23 (임은동),36.0878674,128.3653508
경상북도 구미시 임은길 36 (임은동),36.0885015,128.3671455
경상북도 구미시 임은길 55-11 (임은동),36.0892655,128.3676437
경상북도 구미시 임은길 55-16 (임은동),36.0897849,128.3675762
경상북도 구미시 임은길 68 (임은동),36.0888229,128.3700002
경상북도 구미시 장천면 강동로 493-1,36.1520043,128.4886376
경상북도 구미시 장천면 강동로 493-5,36.1520043,128.4886376
경상북도 구미시 장천면 강동로 99-93 (,36.1160646,128.4976479
경상북도 구미시 장천면 금산리 산 4-2번지,36.1577476,128.5193899
경상북도 구미시 장천면 묵어1길 73,36.1418136,128.4942599
경상북도 구미시 장천면 묵어길 17,36.1387987,128.4923802
경상북도 구미시 장천면 묵어길 5,36.1384948,128.4911016
경상북도 구미시 장천면 상림리 21-1번지,36.1470509,128.5131754
경상북도 구미시 장천면 상림리 28번지,36.1463974,128.51342
경상북도 구미시 장천면 상장3길 24-32,36.1255737,128.5003175
경상북도 구미시 장천면 상장5길 39,36.1230775,128.4956825
경상북도 구미시 장천면 상장6길 21-2,36.1287886,128.5005345
경상북도 구미시 장천면 상장리 10-1번지,36.1279544,128.5121734
경상북도 구미시 장천면 상장리 2-1번지,36.1285542,128.5124828
경상북도 구미시 장천면 상장리 2번지,36.1285542,128.5124828
경상북도 구미시 장천면 상장리 556-3번지,36.1130479,128.4996204
경상북도 구미시 장천면 상장리 560-5번지,36.1133253,128.4988169
경상북도 구미시 장천면 송신로 671,36.1273308,128.4904099
경상북도 구미시 장천면 신장1길 75,36.1258371,128.4761739
"경상북도 구미시 장천면 신장1길 75, 가동",36.1258371,128.4761739
경상북도 구미시 장천면 신장2길 38,36.1254095,128.4774033
경상북도 구미시 장천면 신장2길 42 ((주)해성케미칼공장),36.1251532,128.477477
경상북도 구미시 장천면 신장2길 44,36.1248211,128.4771387
경상북도 구미시 장천면 신장2길 54-7,36.1236782,128.477835
경상북도 구미시 장천면 신장2길 60 (장천면),36.1236605,128.4786481
경상북도 구미시 장천면 신장2길 66,36.1226535,128.4782653
경상북도 구미시 장천면 신장2길 82-6 (명성수지공장) (,36.1220146,128.4786881
경상북도 구미시 장천면 신장2길 82-7,36.1217027,128.4784806
경상북도 구미시 장천면 신장2길 82-8 (삼양수지),36.1220082,128.4782803
경상북도 구미시 장천면 신장2길 86,36.1216205,128.47897
경상북도 구미시 장천면 신장3길 15-17,36.130146,128.4874033
경상북도 구미시 장천면 신장4길 72,36.1226231,128.4849272
경상북도 구미시 장천면 신장4길 74-1,36.1229966,128.4857405
경상북도 구미시 장천면 신장6길 40,36.1167576,128.481562
경상북도 구미시 장천면 신장6길 53-26,36.1139449,128.4839775
경상북도 구미시 장천면 신장리 70-2번지,36.1210897,128.4854532
경상북도 구미시 장천면 신장리 70번지,36.1212927,128.4849679
경상북도 구미시 장천면 신장리 76-3번지,36.1221467,128.4846144
경상북도 구미시 장천면 여남1길 179 (,36.1383399,128.5227954
경상북도 구미시 장천면 여남1길 189 (송학산업공장) (,36.138385,128.5215468
경상북도 구미시 장천면 여남1길 19-6,36.1269576,128.5226021
경상북도 구미시 장천면 여남1길 199 (장천공장) (,36.1382888,128.5204561
경상북도 구미시 장천면 여남리 880번지,36.123946,128.5149979
경상북도 구미시 장천면 장군로 165,36.1239759,128.5208888
경상북도 구미시 장천면 장군로 169,36.1239759,128.5208888
경상북도 구미시 장천면 장군로 216-43 (한국산업),36.1232694,128.516411
경상북도 구미시 장천면 장군로 216-51 (동천수지),36.1235274,128.5152985
경상북도 구미시 장천면 장군로 216-60,36.1238615,128.5141053
경상북도 구미시 장천면 장군로 216-62,36.1241057,128.5143346
경상북도 구미시 장천면 장군로 297,36.1248471,128.5260331
경상북도 구미시 장천면 장군로 339-4 ((주)아워홈구미식재가공센터),36.1241378,128.5307309
경상북도 구미시 장천면 장천로 355-8,36.1644154,128.5205988
경상북도 구미시 장천면 장천로 481 (,36.1733276,128.526268
경상북도 구미시 장천면 장천상림3길 57-10,36.1464445,128.5139915
경상북도 구미시 장천면 장천상림3길 57-6 ((주)대원에프엔씨),36.1469531,128.5141359
경상북도 구미시 장천면 장천상림3길 59 (덕성산업),36.1478737,128.5140442
경상북도 구미시 장천면 장천상림3길 77-12 ((주)큐렉스),36.1475334,128.5131229
경상북도 구미시 장천면 장천상림3길 77-3,36.1479919,128.5133926
경상북도 구미시 장천면 장천상림3길 77-7,36.1477751,128.5137035
경상북도 구미시 장천면 장천상림3길 83-1,36.1473516,128.5120061
경상북도 구미시 장천면 장천상림3길 91 ((주)테크폴리머공장),36.1482344,128.5112787
경상북도 구미시 장천면 하장2길 125-13 (,36.1345226,128.5061118
경상북도 구미시 장천면 하장2길 172-4,36.132887,128.5107233
경상북도 구미시 장천면 하장2길 260 (대마실업),36.1379303,128.5196393
경상북도 구미시 장천면 하장2길 274-13,36.1371464,128.5203797
경상북도 구미시 장천면 하장2길 274-19 (울트라보드),36.1367281,128.5195681
경상북도 구미시 장천면 하장2길 274-25 ((주)부원),36.1361525,128.5182498
경상북도 구미시 장천면 하장2길 274-26 (경성테크),36.1370363,128.5185245
경상북도 구미시 장천면 하장2길 274-9,36.1376717,128.520202
경상북도 구미시 장천면 하장2길 96-15,36.1328029,128.5022744
경상북도 구미시 장천면 하장2길 96-17,36.1328029,128.5022744
경상북도 구미시 장천면 하장2길 96-19,36.1314995,128.5025194
경상북도 구미시 장천면 하장3길 109-14,36.1366478,128.4871979
경상북도 구미시 장천면 하장3길 113,36.1371869,128.4880524
경상북도 구미시 장천면 하장3길 113-17,36.1389091,128.488533
경상북도 구미시 장천면 하장3길 113-19,36.1386567,128.4889726
경상북도 구미시 장천면 하장3길 117,36.137044,128.4884026
경상북도 구미시 장천면 하장리 150번지,36.1323821,128.5028827
경상북도 구미시 장천면 하장리 6-1번지,36.1386185,128.5236117
경상북도 구미시 장천면 하장리 산 22-11번지,36.1382778,128.4890658
경상북도 구미시 장천면 하장리 산 22-6번지,36.1382778,128.4890658
경상북도 구미시 장천면 하장리 산 52-12번지,36.1372693,128.5188316
경상북도 구미시 장천면 학신로 172 (,36.1129663,128.4876992
경상북도 구미시 장천면 학신로 173 ((주)미래엔지니어링공장) (,36.1127938,128.4868932
경상북도 구미시 장천면 학신로 185,36.1135154,128.4858943
경상북도 구미시 장천면 학신로 239,36.1207439,128.4852099
경상북도 구미시 장천면 학신로 241-14,36.118149,128.4825214
경상북도 구미시 장천면 학신로 241-16,36.1183818,128.4817686
경상북도 구미시 장천면 학신로 241-8,36.1183188,128.4833078
경상북도 구미시 장천면 학신로 243,36.1184767,128.4835032
경상북도 구미시 장천면 학신로 246-16,36.1200371,128.4861022
경상북도 구미시 장천면 학신로 262,36.1202241,128.4842126
경상북도 구미시 장천면 학신로 272-5,36.1210196,128.4847519
경상북도 구미시 장천면 학신로 278-1,36.1216902,128.4845149
경상북도 구미시 장천면 학신로 278-11 (,36.1216716,128.4848825
경상북도 구미시 장천면 학신로 278-21,36.1213581,128.4848306
경상북도 구미시 장천면 학신로 278-8,36.1212051,128.4843453
경상북도 구미시 지주중류4길 15-26 (오태동),36.0808347,128.374092
경상북도 구미시 지주중류4길 5-4 (오태동),36.080128,128.3731846
경상북도 구미시 진평동 0번지 57B 3L,36.101727,128.4089774
경상북도 구미시 진평동 41번지,36.0965348,128.4260496
경상북도 구미시 해평면 강동로 1302-53,36.1765333,128.4174422
경상북도 구미시 해평면 강동로 1302-67,36.176133,128.4172267
경상북도 구미시 해평면 강동로 1302-68 (해평면),36.1756175,128.4182667
경상북도 구미시 해평면 강동로 1581 (오상정미소) (,36.1916715,128.3941775
경상북도 구미시 해평면 강동로 1594-40,36.1956508,128.3976967
경상북도 구미시 해평면 강동로 1594-44 (해평농협미곡처리장),36.1963932,128.3967049
경상북도 구미시 해평면 강동로 1638-14,36.1975853,128.3934978
경상북도 구미시 해평면 강동로 1640-117,36.2044115,128.4000386
경상북도 구미시 해평면 강동로 1794,36.2102472,128.3885787
경상북도 구미시 해평면 강동로 2011-1,36.2246079,128.3707477
경상북도 구미시 해평면 강동로 2162-21 (영산유니콤),36.1631388,128.4636641
경상북도 구미시 해평면 강동로 2448,36.2534825,128.350189
경상북도 구미시 해평면 강동로 2533,36.2602514,128.3488226
경상북도 구미시 해평면 괴곡3길 81,36.1784932,128.4178117
경상북도 구미시 해평면 괴곡4길 17-12,36.1803611,128.4088189
경상북도 구미시 해평면 금산리 470-1번지,36.200369,128.4162543
경상북도 구미시 해평면 도신로 162-32,36.2135106,128.4138716
경상북도 구미시 해평면 도신로 162-34,36.2135106,128.4138716
경상북도 구미시 해평면 도신로 162-40,36.2135106,128.4138716
경상북도 구미시 해평면 산양리 66-2 번지,36.2254482,128.3694713
경상북도 구미시 해평면 산양리 70번지,36.2268952,128.3704915
경상북도 구미시 해평면 성수문량길 544-68,36.1748697,128.3956497
경상북도 구미시 해평면 오상1길 28,36.1875565,128.3995882
경상북도 구미시 해평면 오상4길 8,36.1905512,128.3961422
경상북도 구미시 해평면 월곡1길 9-15,36.2310313,128.3630888
경상북도 구미시 해평면 월호3길 18 (동방섬유),36.2072984,128.3918482
경상북도 구미시 해평면 월호3길 29,36.2079526,128.3924375
경상북도 구미시 해평면 월호3길 37,36.2075915,128.3928817
경상북도 구미시 해평면 월호3길 37 (아일공업(주)),36.2075915,128.3928817
경상북도 구미시 해평면 월호3길 38,36.2070486,128.3924319
경상북도 구미시 해평면 월호3길 45,36.207355,128.3932853
경상북도 구미시 해평면 월호3길 51,36.2072453,128.3943034
경상북도 구미시 해평면 월호3길 57,36.2064804,128.3944931
경상북도 구미시 해평면 월호3길 61,36.2061665,128.3942958
경상북도 구미시 해평면 월호3길 69,36.2061678,128.3933505
경상북도 구미시 해평면 월호3길 73,36.2064839,128.3928661
경상북도 구미시 형곡동로 40 (형곡동),36.1058193,128.3364199
경상북도 구미시 형곡동로 41-5 (형곡동),36.1058216,128.3356258
경상북도 구미시 형곡동로 60-1 (형곡동),36.1076636,128.3363445
경상북도 구미시 형곡동로 69 (형곡동),36.1083556,128.335771
경상북도 구미시 형곡동로8길 12 (형곡동),36.1076661,128.3373652
경상북도 구미시 형곡로 126 (형곡동),36.1099221,128.3321878
경상북도 구미시 형곡로 136 (형곡동),36.1089695,128.3321671
경상북도 구미시 형곡로 166 (형곡동),36.1071081,128.3341874
경상북도 구미시 형곡로 32-5 (형곡동),36.1170066,128.335619
경상북도 구미시 형곡로 64 (형곡동),36.1157169,128.3323799
경상북도 구미시 형곡로26길 6-35 (형곡동),36.1079586,128.3317241
경상북도 구미시 형곡로29길 10 (형곡동),36.1075594,128.3355677
경상북도 구미시 형곡로39길 17 (형곡동),36.1098415,128.3397248
경상북도 구미시 형곡로5길 12-6 (형곡동),36.1150913,128.3343434
"경상북도 구미시 형곡서로 11-3, 3층 (형곡동)",36.1031179,128.3345859
경상북도 구미시 형곡서로1길 22 (형곡동),36.106575,128.3327268
"경상북도 구미시 형곡중앙로 10, 동우콤비 1층 30호 (형곡동)",36.1116409,128.3331625
경상북도 구미시 화신로 60 (광평동),36.109135,128.3524817
"경상북도 구미시 황상동-110번지 3주공아파트상가 201호,202호,203호,204호, 207호",36.1185416,128.4298298
경상북도 상주시 공성면 평천공단길 15,36.2847558,128.1143241
경상북도 상주시 공성면 평천공단길 23,36.2850115,128.1136743
경상북도 상주시 공성면 평천공단길 29-14,36.2842793,128.1121081
경상북도 상주시 공성면 평천공단길 29-14 (,36.2842793,128.1121081
경상북도 상주시 공성면 평천공단길 37,36.2853531,128.1117423
경상북도 상주시 공성면 평천공단길 7-14,36.2845373,128.1165813
경상북도 상주시 공성면 평천공단길 7-30,36.2837433,128.1165367
경상북도 상주시 공성면 평천공단길 7-32,36.2829893,128.1161582
경상북도 상주시 공성면 평천공단길 9-11,36.2838804,128.1154894
경상북도 상주시 공성면 평천공단길 9-12,36.2837887,128.1143438
경상북도 상주시 외답6길 19 (외답동),36.4163525,128.2034475
경상북도 상주시 외답6길 25-10 (외답동),36.4155685,128.2039696
경상북도 상주시 외답6길 25-12 (외답동),36.415656,128.2044582
경상북도 상주시 외답6길 27 (외답동),36.4155956,128.2033943
경상북도 상주시 외답6길 33 (외답동),36.4149863,128.2039524
경상북도 상주시 외답6길 9 (외답동),36.4171047,128.2041754
경상북도 상주시 은척면 성주봉로 91,36.5342128,128.0361823
경상북도 상주시 청리면 마공공단로 60,36.3257859,128.1234012
경상북도 상주시 청리면 마공공단로 80,36.3237954,128.122086
경상북도 상주시 청리면 마공공단로 80-12,36.3237954,128.122086
경상북도 상주시 청리면 마공리 1203-2번지,36.3127716,128.1333955
경상북도 상주시 청리면 마공리 1203번지,36.3127716,128.1333955
경상북도 상주시 함창읍 영동길 19-8,36.5587442,128.195444
경상북도 상주시 함창읍 영동길 39-51,36.5587442,128.195444
경상북도 상주시 함창읍 영동길 9-15,36.5610442,128.1931507
경상북도 상주시 함창읍 영동길 9-16,36.5612475,128.1939656
경상북도 상주시 함창읍 영동길 9-19,36.5615361,128.1933005
경상북도 상주시 함창읍 영동길 9-27,36.5620516,128.1932716
경상북도 상주시 함창읍 영동길 9-28,36.5621502,128.1941489
경상북도 상주시 함창읍 영동길 9-29,36.5624968,128.1932705
경상북도 상주시 함창읍 영동길 9-32,36.5629486,128.1941922
경상북도 상주시 함창읍 영동길 9-33,36.562912,128.1934537
경상북도 상주시 함창읍 영동길 9-45,36.562912,128.1934537
경상북도 상주시 함창읍 영동길 9-67,36.562912,128.1934537
경상북도 상주시 함창읍 영동길 9-76,36.562912,128.1934537
경상북도 상주시 함창읍 영동길 9-9,36.5605106,128.193193
경상북도 상주시 함창읍 영동길 9-98,36.562912,128.1934537
경상북도 상주시 함창읍 오동리 842번지,36.5611438,128.1924565
경상북도 상주시 함창읍 오동리 845번지,36.5611438,128.1924565
경상북도 상주시 함창읍 오동리 848번지,36.5611438,128.1924565
경상북도 상주시 함창읍 오동리 857번지,36.5611438,128.1924565
경상북도 상주시 헌신공단길 11 (헌신동),36.414891,128.2090291
경상북도 상주시 헌신공단길 12 (헌신동),36.4154989,128.2082713
경상북도 상주시 헌신공단길 15-6 (헌신동),36.4147441,128.2080084
경상북도 상주시 헌신공단길 38 (헌신동),36.4159378,128.2061527
경상북도 상주시 헌신공단길 42 (헌신동) (,36.4151461,128.2058596
경상북도 상주시 헌신공단길 6 (헌신동),36.4159815,128.208528
경상북도 상주시 헌신공단길 68 (헌신동),36.413293,128.2069921
경상북도 상주시 헌신공단길 73 (헌신동),36.4138337,128.2090753
경상북도 상주시 헌신공단길 81 (헌신동),36.4124486,128.2095533
경상북도 상주시 헌신공단길 82 (헌신동),36.413221,128.2085128
경상북도 상주시 화동면 신촌유계길 72-10,36.3835482,127.9585365
경상북도 상주시 화동면 신촌유계길 72-11,36.3849575,127.9579717
경상북도 상주시 화동면 신촌유계길 72-21 (,36.3850642,127.9589236
경상북도 상주시 화동면 신촌유계길 72-3,36.3844895,127.9572843
경상북도 상주시 화동면 신촌유계길 72-4,36.3833974,127.9576973
경상북도 상주시 화서면 상용리 702번지,36.4542332,127.9262247
경상북도 상주시 화서면 상용리 713-1번지,36.4542332,127.9262247
경상북도 상주시 화서면 상용리 713번지,36.4542332,127.9262247
경상북도 상주시 화서면 영남제일로 4287-11,36.4423407,127.9386435
경상북도 상주시 화서면 영남제일로 4287-14,36.4436659,127.9393452
경상북도 상주시 화서면 영남제일로 4287-24,36.4432554,127.9384308
경상북도 상주시 화서면 영남제일로 4287-38,36.4435222,127.9367719
경상북도 상주시 화서면 영남제일로 4287-68,36.4435222,127.9367719
경상북도 안동시 강남로 10-3 (수상동),36.5462361,128.7042846
경상북도 안동시 강남로 36 (수상동),36.5472653,128.7061235
경상북도 안동시 강남로 40-9 (수상동),36.54697,128.7068245
경상북도 안동시 강남로 47-1 (수상동),36.549121,128.7067055
경상북도 안동시 강남로 50 (수상동),36.5444301,128.7163921
경상북도 안동시 강남로 56-10 (수상동),36.5475514,128.7074117
경상북도 안동시 강남로 56-8 (수상동),36.5475105,128.7080736
경상북도 안동시 강남로 59 (수상동),36.549567,128.707793
경상북도 안동시 강남로 71-1 (수상동),36.5496354,128.7088615
경상북도 안동시 강남로 72 (수상동),36.5487137,128.7095869
경상북도 안동시 강남로 76 (수상동),36.5488802,128.710224
경상북도 안동시 강남로 84 (수상동),36.549248,128.7118771
"경상북도 안동시 강남로 99-12, 1층 (수상동)",36.5513551,128.7120115
경상북도 안동시 강남로 99-13 (수상동),36.5512107,128.7114483
경상북도 안동시 거북골길 151 (정상동),36.5442523,128.7476617
경상북도 안동시 건지기길 14-35 (수상동),36.546883,128.7125088
경상북도 안동시 건지기길 8 (수상동),36.547129,128.7119213
경상북도 안동시 경동로 1306 (송천동),36.5436269,128.8198331
경상북도 안동시 경동로 732 (법흥동),36.5638548,128.7379552
경상북도 안동시 경동로 748 (법흥동),36.5641543,128.7396516
경상북도 안동시 경동로 842-28 (용상동),36.5603117,128.7481498
"경상북도 안동시 경북대로 142, (527-1) (수상동)",36.5450814,128.7023441
"경상북도 안동시 경북대로 585, 1층 (송현동)",36.5754444,128.6872846
"경상북도 안동시 경북대로 609, 송현동 461번지 (송현동)",36.5829634,128.6977905
경상북도 안동시 경북대로 649-20 (송현동),36.575201,128.6756219
경상북도 안동시 경북대로 649-23 (송현동),36.575201,128.6756219
경상북도 안동시 공단로 42 (수상동),36.5500732,128.7055492
경상북도 안동시 공단로 48 (수상동),36.5501147,128.7060087
경상북도 안동시 광석1길 17 (광석동),36.5660223,128.721897
경상북도 안동시 광석1길 27-29 (광석동),36.5660495,128.7226033
경상북도 안동시 광석동 19-4번지,36.5655268,128.7220164
경상북도 안동시 길안면 대사로 914-33,36.3876761,128.9668678
경상북도 안동시 길안면 만음백자길 487,36.408848,128.8685122
경상북도 안동시 길안면 웃장터길 15-8,36.4509103,128.898363
경상북도 안동시 길안면 의성길안로 2559,36.4440428,128.8658707
경상북도 안동시 남선면 검정길 30,36.516007,128.7074482
경상북도 안동시 남선면 놉실로 194,36.5193699,128.7090398
경상북도 안동시 남선면 농공단지길 14-9,36.5330933,128.7794149
경상북도 안동시 남선면 농공단지길 16,36.5322094,128.7795289
경상북도 안동시 남선면 농공단지길 16-1,36.5322094,128.7795289
경상북도 안동시 남선면 농공단지길 17,36.5318848,128.7778941
경상북도 안동시 남선면 농공단지길 18,36.5322094,128.7795289
경상북도 안동시 남선면 농공단지길 32,36.532697,128.7784182
경상북도 안동시 남선면 농공단지길 33-6,36.5328561,128.7773757
경상북도 안동시 남선면 농공단지길 35,36.5327943,128.777863
경상북도 안동시 남선면 농공단지길 39,36.5330757,128.7779664
경상북도 안동시 남선면 농공단지길 44,36.5332415,128.7787978
"경상북도 안동시 남선면 새절길 1, (도로리 469-1)",36.528346,128.7545103
경상북도 안동시 남선면 샘들윗길 2,36.5331481,128.8016059
경상북도 안동시 남선면 샘들윗길 40,36.5333321,128.7987568
경상북도 안동시 남선면 선진길 16-10,36.5198055,128.6987515
경상북도 안동시 남선면 신석리 463번지,36.5317817,128.7814007
경상북도 안동시 남선면 신평길 67-16,36.5264276,128.7849703
경상북도 안동시 남선면 원림리 306-1번지,36.5165012,128.7078524
경상북도 안동시 남선면 지골길 18,36.5184691,128.724272
경상북도 안동시 남선면 추목로 122-30,36.5189896,128.8119518
경상북도 안동시 남선면 충효로 4147-19,36.529021,128.7462694
경상북도 안동시 남후면 광음리 695번지,36.5028023,128.667099
경상북도 안동시 남후면 남일로 1338,36.519316,128.6448332
경상북도 안동시 남후면 남일로 1369-6,36.5265068,128.6803783
경상북도 안동시 남후면 남일로 302,36.497319,128.6033437
"경상북도 안동시 남후면 농공길 19, (남후농공단지)",36.5023892,128.6622543
경상북도 안동시 남후면 농공길 24,36.5012669,128.662201
"경상북도 안동시 남후면 농공길 25, (남후농공단지)",36.5023892,128.6622543
경상북도 안동시 남후면 농공길 28,36.5012706,128.6618617
경상북도 안동시 남후면 농공길 36-10,36.5013807,128.6613391
경상북도 안동시 남후면 농공길 36-11,36.5021217,128.6606645
경상북도 안동시 남후면 농공길 36-7,36.5018452,128.6602938
경상북도 안동시 남후면 농공길 36-9,36.5018452,128.6602938
경상북도 안동시 남후면 농공길 37-10,36.4999441,128.6598903
경상북도 안동시 남후면 농공길 37-9,36.4999463,128.6607922
"경상북도 안동시 남후면 농공길 37-9, 남후농공단지내 (",36.4999463,128.6607922
"경상북도 안동시 남후면 농공길 39, 남후농공단지",36.5023892,128.6622543
경상북도 안동시 남후면 농공길 45,36.500411,128.6593886
경상북도 안동시 남후면 농공길 5,36.5019682,128.6634651
"경상북도 안동시 남후면 농공길 51, 남후농공단지내",36.5007424,128.6587741
경상북도 안동시 남후면 농공길 52-10,36.5021371,128.659833
경상북도 안동시 남후면 농공길 52-11,36.5022026,128.6590722
경상북도 안동시 남후면 농공길 52-9,36.5018116,128.6583902
경상북도 안동시 남후면 농공길 52-9 (,36.5018116,128.6583902
"경상북도 안동시 남후면 농공길 57, 농공단지내",36.5012492,128.6580796
경상북도 안동시 남후면 농공길 6,36.502054,128.6626342
"경상북도 안동시 남후면 농공길 6, 남후농공단지",36.5023892,128.6622543
경상북도 안동시 남후면 농공길 65,36.5016936,128.6570664
경상북도 안동시 남후면 농공길 65-12,36.5016853,128.6566221
경상북도 안동시 남후면 농공길 65-9,36.5007144,128.6566708
경상북도 안동시 남후면 농공길 76,36.5022486,128.6580825
경상북도 안동시 남후면 무릉리 996번지,36.5249471,128.6659525
경상북도 안동시 남후면 숨실길 59,36.5252712,128.6658548
경상북도 안동시 남후면 철안길 15,36.5201237,128.691633
경상북도 안동시 남후면 큰광음길 107,36.5029267,128.6593139
경상북도 안동시 남후면 큰광음길 111,36.5030803,128.658766
경상북도 안동시 남후면 큰광음길 115,36.5031163,128.6582841
경상북도 안동시 남후면 큰광음길 140,36.5045283,128.6561817
경상북도 안동시 남후면 큰광음길 183-7,36.5062273,128.6520488
"경상북도 안동시 남후면 큰광음길 79, 남후농공단지내",36.5021422,128.662165
"경상북도 안동시 남후면 큰광음길 83, 남후농공단지",36.5023892,128.6622543
경상북도 안동시 남후면 큰광음길 89,36.5024604,128.6606819
경상북도 안동시 노하1길 110 (노하동),36.5825672,128.6767834
경상북도 안동시 노하길 373 (송현동),36.5732451,128.6966505
경상북도 안동시 녹전면 녹지로 291-6,36.7111162,128.7382338
경상북도 안동시 녹전면 죽송리 46-1번지,36.7296988,128.7780879
"경상북도 안동시 단원로 89, 삼영빌딩 5층 (운안동)",36.5715568,128.7136169
경상북도 안동시 대석3길 16 (대석동),36.5659449,128.7257361
경상북도 안동시 마들7길 76 (용상동),36.5495782,128.7637698
경상북도 안동시 마들길 196 (용상동),36.5490589,128.7644036
경상북도 안동시 마들길 303-11 (용상동),36.5501558,128.7706884
경상북도 안동시 마들큰길 28 (용상동),36.5529954,128.7554851
경상북도 안동시 마지1길 166 (수상동),36.5433931,128.7109288
경상북도 안동시 마지1길 24 (수상동),36.5482597,128.7104529
"경상북도 안동시 마지1길 30, B동 (수상동)",36.5481052,128.7108178
경상북도 안동시 마지1길 46-24 (수상동),36.5475325,128.7102921
경상북도 안동시 말구리1길 15 (태화동),36.5690535,128.7050928
"경상북도 안동시 맑은샘길 37, D동 101호 (운흥동)",36.5619504,128.7274203
경상북도 안동시 먼달길 41 (정하동),36.5507251,128.7239864
경상북도 안동시 무주무6길 40 (수하동),36.5403425,128.6903746
"경상북도 안동시 무주무6길 40, 제4동 1층 (수하동)",36.5403425,128.6903746
"경상북도 안동시 무주무6길 40, 제4동 2층 (수하동)",36.5403425,128.6903746
경상북도 안동시 무주무6길 6 (수하동),36.5406825,128.6884488
"경상북도 안동시 미내길 127-4, (소산리 874) (풍산읍)",36.5860059,128.5391858
경상북도 안동시 바람이길 145-38 (정하동) 제3동,36.5426928,128.7259818
경상북도 안동시 배고개길 95 (수하동),36.5404391,128.6956134
경상북도 안동시 북순환로 251 (안막동),36.5763746,128.7283846
경상북도 안동시 북후면 광평2길 106-25,36.6567692,128.6862384
경상북도 안동시 북후면 물한길 26,36.6583744,128.7099976
경상북도 안동시 북후면 물한길 3,36.6600864,128.7027991
경상북도 안동시 북후면 물한덕거리길 84,36.6613821,128.7146477
경상북도 안동시 북후면 물한덕거리길 86,36.6613821,128.7146477
경상북도 안동시 북후면 북평로 714-1,36.6330128,128.701099
경상북도 안동시 북후면 북평로 819,36.6802332,128.7005432
"경상북도 안동시 서경지3길 15, (1층) (태화동)",36.5603337,128.714299
경상북도 안동시 서동문로 74 (당북동),36.5620844,128.7188872
경상북도 안동시 서동문로 76 (당북동),36.5620844,128.7188872
경상북도 안동시 서후면 경북대로 1071-29,36.6234312,128.7028049
경상북도 안동시 서후면 경북대로 1427,36.6281638,128.7010203
경상북도 안동시 서후면 경북대로 957-11,36.6281638,128.7010203
경상북도 안동시 서후면 경북대로 957-14,36.6281638,128.7010203
경상북도 안동시 서후면 광평리 234-1번지,36.6532518,128.6969556
경상북도 안동시 서후면 국화향길 7-1,36.6380392,128.673218
경상북도 안동시 서후면 금계리 388 번지,36.6059082,128.671556
경상북도 안동시 서후면 명리 495-13번지,36.5899341,128.6425032
경상북도 안동시 서후면 명리두솔원길 5-5,36.5898589,128.6437352
경상북도 안동시 서후면 봉정사길 103-5,36.6408208,128.6694423
경상북도 안동시 서후면 북평로 116-15,36.6265299,128.7035017
경상북도 안동시 서후면 북평로 116-16,36.625463,128.7031644
경상북도 안동시 서후면 생명의콩길 258,36.6210857,128.6244219
"경상북도 안동시 서후면 서선길 189, 1402호(안동과학대학교 창업보육센터) (대학교)",36.5896336,128.6540545
"경상북도 안동시 서후면 서선길 189, 1402호(안동과학대학교, 창업보육센터) (대학교)",36.5896336,128.6540545
"경상북도 안동시 서후면 서선길 189, 창업보육센타 1404호",36.590128,128.6544
경상북도 안동시 서후면 이송천길 288,36.6220293,128.6933184
경상북도 안동시 서후면 이송천한터길 45-53,36.6044784,128.7025871
경상북도 안동시 서후면 풍산태사로 2886-10,36.6142689,128.6662167
경상북도 안동시 서후면 풍산태사로 3281-9,36.6391924,128.6824627
경상북도 안동시 서후면 풍산태사로 3310-10,36.6389536,128.6860625
경상북도 안동시 솔밭길 226 (옥동),36.5557036,128.6862622
"경상북도 안동시 송천길 5 (송천동, 농업협동조합)",36.5461145,128.7878264
경상북도 안동시 수상동 820-150번지,36.550198,128.7101847
경상북도 안동시 쉼텃길 172 (옥동),36.5608141,128.6866713
경상북도 안동시 안막동 527-4번지,36.5865885,128.7205787
경상북도 안동시 앙실3길 19-60 (수하동),36.5568784,128.6767537
경상북도 안동시 앙실3길 21-12 (수하동),36.5574025,128.6736428
경상북도 안동시 앙실3길 77 (수하동) (,36.5601373,128.6767341
경상북도 안동시 앙실로 367 (수하동),36.5560963,128.6773646
경상북도 안동시 앙실로 372 (수하동),36.556239,128.6782718
경상북도 안동시 앙실로 392 (수하동),36.5570916,128.6785731
경상북도 안동시 영가로 19 (동부동) 5층,36.5648871,128.732922
경상북도 안동시 영호3길 15 (옥야동),36.5616718,128.7216644
"경상북도 안동시 옥동2길 31, 1층 (옥동)",36.5599613,128.7008131
경상북도 안동시 와룡면 가장실길 53,36.6031662,128.7659364
경상북도 안동시 와룡면 서동골길 25,36.6095922,128.7575402
경상북도 안동시 와룡면 태리금산로 8,36.6397737,128.7640945
경상북도 안동시 와룡면 퇴계로 1437-12,36.6634341,128.7827517
"경상북도 안동시 와북로 680-20, (서현리 280) (와룡면)",36.6663802,128.754237
경상북도 안동시 이천동 306-1번지,36.608644,128.720662
경상북도 안동시 이천동 539-1번지,36.5874514,128.7142114
경상북도 안동시 일직면 구운산길 2,36.4767925,128.6510522
경상북도 안동시 일직면 용각길 55,36.4610231,128.6132399
경상북도 안동시 일직면 용각길 8,36.4547629,128.598017
경상북도 안동시 일직면 운산리 182번지,36.4792085,128.6573386
경상북도 안동시 일직면 조탑본길 164,36.4808054,128.6439524
경상북도 안동시 일직면 조탑본길 168,36.4807969,128.6447079
경상북도 안동시 일직면 조탑본길 90,36.482833,128.6386135
경상북도 안동시 일직면 풍일로 2340,36.4747613,128.6289113
경상북도 안동시 일직면 풍일로 2473,36.4791435,128.6573603
경상북도 안동시 임하면 금소1길 2-15,36.5045344,128.8547575
경상북도 안동시 임하면 원오대길 6,36.4797898,128.8924104
경상북도 안동시 임하면 임하중마길 71,36.5206154,128.8644003
경상북도 안동시 임하면 추목로 11,36.5315574,128.8106872
경상북도 안동시 임하면 추목리 산 135-1번지,36.4940389,128.8136367
경상북도 안동시 임하면 충효로 2520,36.477613,128.884259
경상북도 안동시 임하면 충효로 3337-15,36.5271209,128.8238094
경상북도 안동시 전거리4길 7-32 (용상동),36.5591549,128.7433407
"경상북도 안동시 전거리5길 29, 1층 (용상동)",36.5587597,128.7434229
경상북도 안동시 제비원로 475 (이천동),36.5927633,128.7138703
"경상북도 안동시 중들길 65, 102호,103호 (용상동, 경동아파트)",36.5578678,128.7569825
경상북도 안동시 충효로 4304-3 (정상동),36.5429442,128.7648292
경상북도 안동시 퇴계로 389 (안막동),36.588949,128.7409744
경상북도 안동시 포진길 53 (송천동) (,36.5418974,128.8104735
경상북도 안동시 풍산읍 경서로 4380-59 (,36.5916805,128.595129
"경상북도 안동시 풍산읍 괴정2길 106-15, 502동, 503동",36.602847,128.5317518
경상북도 안동시 풍산읍 괴정2길 106-17 403동,36.602847,128.5317518
경상북도 안동시 풍산읍 괴정2길 106-17 404동,36.602847,128.5317518
경상북도 안동시 풍산읍 괴정2길 41-69,36.6030436,128.5306955
경상북도 안동시 풍산읍 괴정리 1003번지,36.5985998,128.536271
경상북도 안동시 풍산읍 괴정리 1012번지,36.5985998,128.536271
경상북도 안동시 풍산읍 괴정리 1015 번지,36.5985998,128.536271
경상북도 안동시 풍산읍 괴정리 1016번지,36.5985998,128.536271
경상북도 안동시 풍산읍 괴정리 1018번지,36.5985998,128.536271
경상북도 안동시 풍산읍 괴정리 132번지,36.6038983,128.5443983
경상북도 안동시 풍산읍 괴정리 356-4번지,36.5907044,128.5382943
경상북도 안동시 풍산읍 괴정리 926-3번지,36.5818882,128.5246706
경상북도 안동시 풍산읍 괴정리 988 번지,36.5985998,128.536271
경상북도 안동시 풍산읍 괴정안길 53-3,36.5953471,128.5351658
경상북도 안동시 풍산읍 교리운곡길 29,36.5849369,128.6576975
"경상북도 안동시 풍산읍 금당길 152-16, (제2호)",36.5860518,128.6502868
경상북도 안동시 풍산읍 금당길 152-5,36.5870265,128.6497083
"경상북도 안동시 풍산읍 나바우길 13, 2층",36.5809505,128.5548204
"경상북도 안동시 풍산읍 나바우길 13, 안동한지(소산리 36-1)",36.5809505,128.5548204
경상북도 안동시 풍산읍 나바우길 21-1,36.5816234,128.5543145
경상북도 안동시 풍산읍 단지길 7-3,36.5942189,128.5950143
경상북도 안동시 풍산읍 매곡리 1124번지,36.5931052,128.5582986
경상북도 안동시 풍산읍 매곡리 1132번지,36.5931052,128.5582986
경상북도 안동시 풍산읍 미내길 63,36.5865287,128.5447245
경상북도 안동시 풍산읍 산업단지1길 38,36.580112,128.5720154
경상북도 안동시 풍산읍 산업단지1길 48-7,36.580112,128.5720154
경상북도 안동시 풍산읍 산업단지2길 15,36.5966049,128.5475901
경상북도 안동시 풍산읍 산업단지2길 31,36.5966049,128.5475901
경상북도 안동시 풍산읍 산업단지2길 5,36.5948086,128.5469777
경상북도 안동시 풍산읍 산업단지2길 55,36.5966049,128.5475901
경상북도 안동시 풍산읍 산업단지5길 32,36.6027981,128.5412039
경상북도 안동시 풍산읍 산업단지5길 39,36.6027981,128.5412039
경상북도 안동시 풍산읍 산업단지5길 46,36.6027981,128.5412039
경상북도 안동시 풍산읍 산업단지6길 56,36.6027788,128.5444419
경상북도 안동시 풍산읍 산업단지6길 6,36.603923,128.5411425
경상북도 안동시 풍산읍 산업단지7길 29,36.580112,128.5720154
경상북도 안동시 풍산읍 산업단지길 105,36.5975698,128.5423654
경상북도 안동시 풍산읍 산업단지길 150,36.5975698,128.5423654
경상북도 안동시 풍산읍 산업단지길 157,36.5975698,128.5423654
경상북도 안동시 풍산읍 산업단지길 217,36.603057,128.5383566
경상북도 안동시 풍산읍 산업단지길 253,36.6024101,128.5347161
"경상북도 안동시 풍산읍 산업단지길 88, 303호 (바이오벤처프라자)",36.5960906,128.5464849
"경상북도 안동시 풍산읍 산업단지길 88, 304호 (경북바이오벤처프라자)",36.5960906,128.5464849
경상북도 안동시 풍산읍 상리길 39,36.5850015,128.5825708
"경상북도 안동시 풍산읍 석교길 31, 풍산읍 노리 40-6번지",36.5942975,128.6325677
"경상북도 안동시 풍산읍 석교길 31-4, (노리 40-5)",36.5942975,128.6325677
경상북도 안동시 풍산읍 수리 1353-13번지,36.5671975,128.6076093
경상북도 안동시 풍산읍 신석현1길 16,36.580112,128.5720154
경상북도 안동시 풍산읍 안교리 497-3번지,36.5802583,128.5693631
경상북도 안동시 풍산읍 양광길 121 (,36.5826102,128.5248342
경상북도 안동시 풍산읍 오미리 894번지,36.5958689,128.49858
경상북도 안동시 풍산읍 유통단지길 124-31,36.5864907,128.6075918
경상북도 안동시 풍산읍 유통단지길 124-34,36.5864907,128.6075918
경상북도 안동시 풍산읍 절뒤길 15,36.5972851,128.5376828
경상북도 안동시 풍산읍 절뒤길 18,36.5978647,128.5386502
경상북도 안동시 풍산읍 절뒤길 33,36.5982434,128.5378023
경상북도 안동시 풍산읍 절뒤길 34,36.59925,128.538414
경상북도 안동시 풍산읍 절뒤길 49,36.6005927,128.5374375
"경상북도 안동시 풍산읍 절뒤길 52, (괴정리 230)",36.600922,128.5389666
경상북도 안동시 풍산읍 절뒤길 53,36.6010563,128.5373524
경상북도 안동시 풍산읍 절뒤길 59,36.5991112,128.5382999
경상북도 안동시 풍산읍 죽전길 24-11,36.5943491,128.5981748
경상북도 안동시 풍산읍 청회길 361,36.5713361,128.6459084
경상북도 안동시 풍산읍 풍산공단길 13,36.5998236,128.5371304
경상북도 안동시 풍산읍 풍산공단길 17,36.5998209,128.5385219
경상북도 안동시 풍산읍 풍산공단길 26,36.5993303,128.5391947
경상북도 안동시 풍산읍 풍산공단길 5-11,36.6004842,128.536528
경상북도 안동시 풍산읍 풍산공단길 5-21,36.601827,128.5359293
경상북도 안동시 풍산읍 풍산공단길 5-22,36.6014915,128.5371688
경상북도 안동시 풍산읍 풍산공단길 5-26,36.6020765,128.5371404
경상북도 안동시 풍산읍 풍산공단길 5-31,36.6024698,128.5358734
경상북도 안동시 풍산읍 풍산공단길 5-8,36.6001911,128.5373553
경상북도 안동시 풍산읍 풍산단호로 131,36.566161,128.5732369
경상북도 안동시 풍산읍 풍산중앙길 87,36.5805441,128.5706491
경상북도 안동시 풍산읍 풍산태사로 1277,36.5786339,128.5940131
경상북도 안동시 풍산읍 풍산태사로 1624,36.5676847,128.620277
경상북도 안동시 풍산읍 풍산태사로 1626-128,36.5673153,128.6080102
경상북도 안동시 풍산읍 풍산태사로 241,36.5959692,128.4978843
경상북도 안동시 풍산읍 풍산태사로 702,36.5906579,128.538998
경상북도 안동시 풍산읍 풍산태사로 702-5,36.5907405,128.5386834
경상북도 안동시 풍천면 지풍로 1510,36.5562583,128.5106032
경상북도 안동시 풍천면 지풍로 1554,36.5545996,128.4987761
경상북도 안동시 풍천면 하회리 163번지,36.5584166,128.5259887
경상북도 안동시 풍천면 하회서원마을길 45,36.5552539,128.5266666
경상북도 예천군 감천면 충효로 1823,36.7534109,128.5494174
경상북도 예천군 감천면 충효로 934 (㈜우성아스콘) (,36.6945018,128.4922094
경상북도 예천군 개포면 경서로 1398-16,36.6192792,128.3220473
경상북도 예천군 개포면 예지로 1216,36.6177005,128.4184973
경상북도 예천군 보문면 미호길 113-13,36.6652599,128.5094709
경상북도 예천군 보문면 미호길 41,36.6670046,128.5018396
경상북도 예천군 보문면 미호길 91 (다인산업) (,36.6664977,128.5068211
경상북도 예천군 보문면 보문로 222 (풍성산업),36.6626165,128.4862367
경상북도 예천군 보문면 산단길 13-3,36.6652563,128.5108955
경상북도 예천군 보문면 산단길 14-11,36.6652563,128.5108955
경상북도 예천군 보문면 산단길 14-12 (주)성지산업 나동,36.6652563,128.5108955
경상북도 예천군 보문면 산단길 14-18,36.6652563,128.5108955
"경상북도 예천군 보문면 산단길 14-5, 가동",36.6652563,128.5108955
"경상북도 예천군 보문면 산단길 14-5, 나동",36.6652563,128.5108955
경상북도 예천군 보문면 산단길 26,36.6652563,128.5108955
경상북도 예천군 보문면 산단길 42,36.6652563,128.5108955
경상북도 예천군 보문면 산단길 65,36.6652563,128.5108955
경상북도 예천군 보문면 승본리 583번지,36.6807474,128.4937966
경상북도 예천군 보문면 승본리 584번지,36.6807474,128.4937966
경상북도 예천군 보문면 승본리 586번지,36.6807474,128.4937966
경상북도 예천군 보문면 승본리 588번지,36.6807474,128.4937966
경상북도 예천군 보문면 승본리 607번지,36.6807474,128.4937966
경상북도 예천군 보문면 승본리 609번지,36.6807474,128.4937966
경상북도 예천군 산단길 64 (보문면),36.6652563,128.5108955
경상북도 예천군 예천읍 경서로 2355-11,36.6368381,128.4124911
경상북도 예천군 예천읍 경서로 2371-2,36.6364946,128.4130518
경상북도 예천군 예천읍 경서로 2401 (예천연탄),36.6374795,128.4163849
경상북도 예천군 예천읍 경서로 2452,36.6393762,128.4211624
경상북도 예천군 예천읍 경서로 2462-78,36.640276,128.423084
경상북도 예천군 예천읍 농공단지길 15,36.6399099,128.4180397
경상북도 예천군 예천읍 농공단지길 16,36.640456,128.4188064
경상북도 예천군 예천읍 농공단지길 20 (한국종합식품㈜),36.6408402,128.4182736
경상북도 예천군 예천읍 농공단지길 34,36.6412745,128.4161783
경상북도 예천군 예천읍 농공단지길 36 (㈜사디에스),36.6404386,128.4150332
경상북도 예천군 예천읍 농공단지길 38 (,36.6400061,128.416044
경상북도 예천군 예천읍 농공단지길 43,36.6393961,128.4167867
경상북도 예천군 예천읍 농공단지길 9 (우일음료㈜) (,36.6393126,128.4186347
경상북도 예천군 예천읍 무리실길 13,36.6469653,128.4354352
경상북도 예천군 예천읍 봉덕로 12 역전떡집 2층,36.6492308,128.4430476
경상북도 예천군 예천읍 상동길 40,36.6352482,128.4228049
경상북도 예천군 예천읍 양궁로 378-24,36.6247258,128.4812368
경상북도 예천군 예천읍 양궁로 378-25,36.6248773,128.482093
경상북도 예천군 예천읍 양궁로 9 (만도카센터),36.6505613,128.4575222
경상북도 예천군 예천읍 충효로 390-1,36.6564401,128.464192
경상북도 예천군 예천읍 효자로 180-1,36.6621211,128.4612395
"경상북도 예천군 예천읍 효자로 40, 5호 (세종타운)",36.6547045,128.4488951
경상북도 예천군 예천읍 효자로 5-1,36.6519916,128.4475115
경상북도 예천군 용궁면 용궁로 127-8,36.6082093,128.2792945
경상북도 예천군 용궁면 용궁로 139 (용궁양조장),36.6077577,128.2804733
경상북도 예천군 용궁면 용궁로 236 (서종농산),36.6080075,128.2905749
경상북도 예천군 용궁면 용궁로 85,36.60787,128.2744083
경상북도 예천군 용궁면 월오리 484-5번지,36.6139191,128.311056
경상북도 예천군 용궁면 월오리 490-1번지,36.6150521,128.3102948
경상북도 예천군 용문면 복천길 16-8 (농산물가공공장),36.6874245,128.407258
경상북도 예천군 용문면 유용로 803,36.6879688,128.395215
경상북도 예천군 유천면 예성로 751,36.6350649,128.3958941
경상북도 예천군 은풍면 은풍로 291-6,36.7628609,128.4471702
경상북도 예천군 은풍면 은풍로 381,36.7598037,128.4495509
경상북도 예천군 지보면 마전2길 39-12,36.5388546,128.3769988
경상북도 예천군 지보면 마전2길 39-22,36.5388546,128.3769988
경상북도 예천군 지보면 소화2길 102,36.5482324,128.3765328
경상북도 예천군 지보면 예지로 562,36.5631191,128.4042395
경상북도 예천군 지보면 예지로 584,36.5651046,128.4073803
경상북도 예천군 지보면 지보로 168-14,36.545595,128.3868013
경상북도 예천군 풍양면 삼강로 385,36.5043265,128.306279
경상북도 예천군 풍양면 삼강로 521,36.5149977,128.3021375
경상북도 예천군 풍양면 상풍로 1368-50,36.4995709,128.2951065
경상북도 예천군 풍양면 풍지로 278-18,36.5226475,128.3316075
경상북도 예천군 풍양면 풍지로 70-20,36.5181109,128.3114649
경상북도 예천군 호명면 양궁로 657,36.6179591,128.5031426
경상북도 예천군 호명면 양궁로 657 (,36.6179591,128.5031426
경상북도 예천군 호명면 양궁로 682-10 (한양레미콘),36.615095,128.5064881
경상북도 예천군 호명면 양궁로 682-9,36.6147798,128.507578
경상북도 예천군 호명면 양궁로 717,36.6146156,128.5092693
경상북도 예천군 호명면 피실길 30 (호명면),36.6100583,128.528851
경상북도 예천군 호명면 하간산길 11-28,36.6108936,128.4927978
경상북도 예천군 호명면 호명로 557-9 103호,36.5964775,128.4696612
경상북도 예천군 효자면 도효자로 2090,36.78445,128.4043709
경상북도 울진군 근남면 노음2길 4,36.9629258,129.3954316
경상북도 울진군 근남면 망양정로 457-5,36.9210443,129.4179926
"경상북도 울진군 근남면 매오길 146, 산포리 1528-1 (울진농원)",36.947711,129.4021707
경상북도 울진군 근남면 매오길 259-10 (경축순환자원화센터),36.9397432,129.4062198
경상북도 울진군 근남면 불영계곡로 3675 (선경콘테이너),36.9673431,129.396953
경상북도 울진군 근남면 울진북로 141,36.9625731,129.3954611
경상북도 울진군 기성면 구산봉산로 438 ((주)울진로하스코리아) (,36.783985,129.4654534
경상북도 울진군 기성면 기성로 287,36.7880038,129.4524513
경상북도 울진군 기성면 기성로 416 (기성휴게소),36.7782602,129.4555319
"경상북도 울진군 기성면 기성로 990, 552-1,552-2,553,554,555-1 555-2,559,560-1,560-2 563",36.8221675,129.4381557
경상북도 울진군 매화면 매화매실길 297-6,36.9274175,129.3771295
경상북도 울진군 매화면 원남로 625 (,36.914899,129.3840981
경상북도 울진군 북면 고목1길 29-35,37.0727672,129.3729535
경상북도 울진군 북면 고목2길 6,37.0761831,129.3902713
경상북도 울진군 북면 고목2길 6 (북면),37.0761831,129.3902713
경상북도 울진군 북면 고목2길 6 (첨단기공㈜),37.0761831,129.3902713
"경상북도 울진군 북면 나실길 10-14, 698-1",37.1250817,129.3713892
경상북도 울진군 북면 덕구온천로 298-3 (대신하이텍),37.090932,129.3420113
경상북도 울진군 북면 덕구온천로 300 (서울종합씽크),37.0908809,129.3422219
경상북도 울진군 북면 마분길 66-6 (,37.0807071,129.3952135
경상북도 울진군 북면 박금소야로 969,37.0868396,129.3445283
경상북도 울진군 북면 부구리 1036-2번지,37.0976462,129.3532393
경상북도 울진군 북면 울진북로 1963,37.0924142,129.3717013
경상북도 울진군 북면 울진북로 2515,37.0934522,129.3778381
경상북도 울진군 북면 장터길 94,37.1032176,129.3749301
경상북도 울진군 북면 주인1길 43 (길림건설㈜),37.0907807,129.3412033
경상북도 울진군 울진읍 고성1길 61-10 (대성전기㈜),36.9998378,129.3939141
경상북도 울진군 울진읍 고성1길 61-12 (태광광고),36.9998981,129.393613
경상북도 울진군 울진읍 대나리항길 38 (동광복층유리),36.9977995,129.4104732
경상북도 울진군 울진읍 산내성로 264,37.0333187,129.3859682
경상북도 울진군 울진읍 새마실3길 47-1,37.0012843,129.401088
경상북도 울진군 울진읍 새마실5길 16-9,36.9988751,129.404185
경상북도 울진군 울진읍 온양리 671-2번지,37.0262561,129.401305
경상북도 울진군 울진읍 울진북로 655-14 (㈜아영레미콘),37.0051207,129.3985026
경상북도 울진군 울진읍 울진북로 745-34 (경북상사) (,37.014313,129.3997204
경상북도 울진군 울진읍 울진북로 745-37 (명지석재),37.014709,129.3982287
경상북도 울진군 울진읍 울진북로 745-46 (나진콘크리트산업),37.0151626,129.3996483
경상북도 울진군 울진읍 울진북로 745-47 ((주)현대목재),37.0155132,129.3988783
"경상북도 울진군 울진읍 울진북로 745-54, 울진농공단지",37.0159249,129.3992244
경상북도 울진군 울진읍 울진북로 745-55 (영동건설(주)),37.0161267,129.3993525
경상북도 울진군 울진읍 울진북로 745-62,37.016434,129.4002661
경상북도 울진군 울진읍 울진북로 745-68,37.0168627,129.3995166
경상북도 울진군 울진읍 울진북로 745-72 (신한벽돌),37.0172033,129.3985283
경상북도 울진군 울진읍 울진북로 745-74,37.0167328,129.3983085
경상북도 울진군 울진읍 울진북로 745-80,37.0162884,129.3978654
경상북도 울진군 울진읍 울진북로 745-88,37.0157508,129.3972983
경상북도 울진군 울진읍 울진북로 779-23 (울진군산림조합목재집하장재제소),37.0165109,129.407022
경상북도 울진군 울진읍 울진북로 779-33,37.0165109,129.407022
경상북도 울진군 울진읍 울진중앙로 41-14,36.9862477,129.3968954
경상북도 울진군 울진읍 읍남리 352-5번지,36.9784626,129.3955704
경상북도 울진군 울진읍 읍내로 29,36.9903117,129.4026222
경상북도 울진군 울진읍 토일1길 138 (1급동해정비),36.9800062,129.3951831
경상북도 울진군 울진읍 토일4길 96 (울진아스콘㈜),36.9861446,129.3812197
경상북도 울진군 울진읍 현내항길 96,36.9910612,129.4094793
경상북도 울진군 울진읍 호월1길 172,37.0164205,129.3833621
경상북도 울진군 울진읍 호월4길 106-4,37.0204753,129.3568077
경상북도 울진군 원남면 갈면대평길 285-9,36.8641212,129.3485297
경상북도 울진군 죽변면 동해대로 5047,37.059005,129.4044218
경상북도 울진군 죽변면 매정1길 87,37.0597699,129.4222508
경상북도 울진군 죽변면 매정1길 91,37.0597699,129.4222508
경상북도 울진군 죽변면 봉황길 67,37.0482612,129.4071808
경상북도 울진군 죽변면 산내성로 481,37.0452309,129.3898552
경상북도 울진군 죽변면 울진북로 1532 (첨단기공㈜),37.0741402,129.4025557
경상북도 울진군 죽변면 울진북로 1546 (부광테크),37.0742297,129.4017454
경상북도 울진군 죽변면 울진북로 1552 (현대자동차그린써비스죽변점),37.0742976,129.4011821
경상북도 울진군 죽변면 죽변2길 174 (대성광고),37.0626518,129.4237567
경상북도 울진군 죽변면 죽변리 390-235번지,37.0567993,129.4182676
경상북도 울진군 죽변면 죽변북로 180,37.0696853,129.4097546
경상북도 울진군 죽변면 죽변중앙로 135-4,37.0586027,129.4190669
경상북도 울진군 죽변면 죽변중앙로 176-5,37.0587453,129.4234105
경상북도 울진군 죽변면 죽변중앙로 202-3,37.057819,129.4254405
경상북도 울진군 죽변면 죽변중앙로 218-2,37.0567889,129.4262049
경상북도 울진군 죽변면 죽변항길 115-9,37.0585305,129.4241935
경상북도 울진군 죽변면 죽변항길 217 (죽변수협제빙냉동공장),37.0548652,129.4249152
경상북도 울진군 죽변면 하죽로 1636,37.0541226,129.390224
경상북도 울진군 죽변면 하죽로 1795-14 (울진레미콘㈜),37.0567471,129.4072947
경상북도 울진군 죽변면 해양과학길 22 (경북해양바이오산업연구원),37.0597699,129.4222508
"경상북도 울진군 죽변면 해양과학길 22, 경북해양바이오산업연구원 인큐베이트공장 202호 (경북해양바이오산업연구원)",37.0597699,129.4222508
경상북도 울진군 죽변면 후정리 115-1번지,37.0656792,129.4123993
경상북도 울진군 죽변면 후정리 116-4번지 116-6,37.0652486,129.4116324
경상북도 울진군 죽변면 후정리 1254-7번지,37.0635572,129.4042494
경상북도 울진군 죽변면 후정리 1260-1번지,37.0635572,129.4042494
경상북도 울진군 죽변면 후정리 785-1번지,37.0675753,129.4027339
경상북도 울진군 죽변면 후정리 907-4번지,37.0584299,129.4029938
경상북도 울진군 죽변면 후정리 915 번지 916-6,37.0597386,129.4041074
경상북도 울진군 죽변면 후정리 930번지,37.0555851,129.401101
경상북도 울진군 평해읍 거일리 104 번지,36.7095693,129.4723869
경상북도 울진군 평해읍 동해대로 723 (㈜동경종합정비),36.7045603,129.4423256
경상북도 울진군 평해읍 박실길 37 (덕운수산),36.7092143,129.4725279
경상북도 울진군 평해읍 오곡2길 41 (비량퇴비제조장),36.7499021,129.4383677
경상북도 울진군 평해읍 울진대게로 641,36.7060708,129.4732711
경상북도 울진군 평해읍 울진대게로 645 (대정수산),36.7088207,129.4741846
경상북도 울진군 평해읍 월송5길 1 (대동제재소),36.7429959,129.4593898
경상북도 울진군 평해읍 월송길 167,36.7402556,129.4606367
경상북도 울진군 평해읍 직산리 214-15번지,36.7185547,129.4711167
경상북도 울진군 평해읍 평오곡길 31-30,36.7410929,129.4499282
경상북도 울진군 평해읍 평오곡길 51-101,36.7410929,129.4499282
경상북도 울진군 평해읍 평오곡길 51-118,36.7410929,129.4499282
"경상북도 울진군 평해읍 평오곡길 51-119, (평해농공단지)",36.7410929,129.4499282
"경상북도 울진군 평해읍 평오곡길 51-119, 평해농공단지",36.7410929,129.4499282
경상북도 울진군 평해읍 평오곡길 51-122,36.7410929,129.4499282
경상북도 울진군 평해읍 평오곡길 51-150,36.7410929,129.4499282
경상북도 울진군 평해읍 평오곡길 51-159,36.7410929,129.4499282
경상북도 울진군 평해읍 평오곡길 51-172,36.7410929,129.4499282
경상북도 울진군 평해읍 평오곡길 51-173,36.7410929,129.4499282
"경상북도 울진군 평해읍 평오곡길 51-23, 평해농공단지",36.7410929,129.4499282
"경상북도 울진군 평해읍 평오곡길 51-31, 평해농공단지",36.7410929,129.4499282
"경상북도 울진군 평해읍 평오곡길 51-51, 평해농공단지",36.7410929,129.4499282
경상북도 울진군 평해읍 평해리 1462-2번지,36.730456,129.4415486
경상북도 울진군 평해읍 평해리 1462-4번지,36.730456,129.4415486
경상북도 울진군 평해읍 학곡7길 28 (㈜금호화성),36.7069907,129.4393966
경상북도 울진군 평해읍 학곡리 457-1번지,36.7032655,129.4432896
"경상북도 울진군 후포면 금음리 573-1번지 574-2,581-3,581-4,580-3,573, 575,574,574-1,580,580-1,581-1, -2동",36.6769952,129.4192013
경상북도 울진군 후포면 동해대로 318 (대후기업㈜),36.6684952,129.4357037
경상북도 울진군 후포면 못골길 104 (정동물산),36.6976875,129.4385246
경상북도 울진군 후포면 못골길 17-12 (신영키토산㈜),36.6921257,129.4410639
경상북도 울진군 후포면 못골길 17-15 (후포면),36.6918679,129.4406988
"경상북도 울진군 후포면 반소골길 43, 256-2번지",36.6615732,129.4260777
경상북도 울진군 후포면 상밤터1길 37,36.683314,129.44081
경상북도 울진군 후포면 쇠골1길 16-33 (경동상사),36.6685765,129.4288066
경상북도 울진군 후포면 쇠골1길 57 (명성레미콘),36.668495,129.4277894
경상북도 울진군 후포면 울진대게로 116,36.6793483,129.4522928
경상북도 울진군 후포면 울진대게로 132 (후포수협제빙냉동공장),36.6800775,129.4534795
경상북도 울진군 후포면 울진대게로 201 (대상㈜후포공장),36.6805547,129.4607086
경상북도 울진군 후포면 울진대게로 219 (삼풍수산),36.6799841,129.4617472
경상북도 울진군 후포면 울진대게로 225 (삼홍실업㈜),36.6798043,129.4623725
경상북도 울진군 후포면 울진대게로 283,36.6819352,129.4639367
경상북도 울진군 후포면 중밤터2길 17,36.684594,129.4347758
경상북도 울진군 후포면 중밤터2길 35,36.6839658,129.4351094
경상북도 울진군 후포면 중밤터2길 43-7 (687),36.6844369,129.4349067
경상북도 울진군 후포면 후포로 150 (신아냉동),36.6829269,129.4569215
경상북도 울진군 후포면 후포로 194,36.6819089,129.4604992
경상북도 울진군 후포면 후포삼율로 20-7,36.6722024,129.4388487
낙동대로1390번길 43,35.1843074,128.9791658
달성1차산업단지관리공단,35.7305333,128.4538791
대구검단산업단지관리공단,35.9125702,128.6217193
대구경북경제자유구역청,35.9191652,128.640238
대구경북첨단의료산업진흥재단,35.8805954,128.7357012
대구광역시 남구,35.8460224,128.5975291
대구광역시 달서구,35.8298561,128.5327576
대구광역시 달성군,35.7746388,128.4317137
대구광역시 동구,35.8866012,128.6353024
대구광역시 북구,35.8857114,128.5828073
대구광역시 서구,35.8717686,128.559115
대구광역시 수성구,35.8582435,128.6306086
대구광역시 중구,35.8693527,128.6061666
대구성서산업단지관리공단,35.8438041,128.5066673
대구염색산업단지관리공단,35.8819584,128.5468036
대구제3산업단지관리공단,35.8986265,128.5730577
대한민국 정부,35.907757,127.766922
미율로 329-21,36.1164281,128.3422703
부산광역시 강서구 가달1로 17 (생곡동),35.1335958,128.8931691
부산광역시 강서구 가달1로 33 (생곡동),35.1323549,128.8926366
부산광역시 강서구 가달1로 33(생곡동),35.1323549,128.8926366
부산광역시 강서구 가달1로 38 (생곡동),35.131607,128.893334
부산광역시 강서구 가달1로 39 (생곡동),35.1314761,128.8932393
부산광역시 강서구 가달1로 47 (생곡동),35.1316079,128.8936961
부산광역시 강서구 가달1로 47 (생곡동) B동,35.1316079,128.8936961
부산광역시 강서구 가달1로 48 (생곡동),35.1317273,128.8940145
부산광역시 강서구 가달1로 53 (생곡동),35.130414,128.8955944
부산광역시 강서구 가달1로 58 (생곡동),35.1318013,128.8941162
부산광역시 강서구 가달1로 59 (생곡동),35.1319286,128.8940935
부산광역시 강서구 가달1로 64 (생곡동),35.1279749,128.8798229
부산광역시 강서구 가달1로 64(생곡동),35.1279749,128.8798229
부산광역시 강서구 가달1로 65 (생곡동),35.1332408,128.8951085
부산광역시 강서구 가달1로 7 (생곡동),35.1338859,128.8958694
부산광역시 강서구 가달1로 72 (생곡동),35.132596,128.8953824
부산광역시 강서구 가달1로 74 (생곡동),35.1319638,128.8953107
"부산광역시 강서구 가달1로 74(생곡동, 광선중공업)",35.1319638,128.8953107
부산광역시 강서구 가달1로 77 (생곡동),35.1318739,128.8957618
부산광역시 강서구 가달1로 80 (생곡동),35.1321466,128.8963101
부산광역시 강서구 가달2로 10 (생곡동),35.1335152,128.8952904
부산광역시 강서구 가달2로 23 (생곡동),35.1330667,128.893283
부산광역시 강서구 가달2로 24 (생곡동),35.1318303,128.8929984
"부산광역시 강서구 가달2로 24(생곡동, (주)JK알에스티)",35.1371909,128.8783277
부산광역시 강서구 가달2로 31 (생곡동),35.1326465,128.8922042
부산광역시 강서구 가달2로 39 (생곡동),35.1314761,128.8932393
부산광역시 강서구 가달2로 40 (생곡동),35.1309526,128.8924775
부산광역시 강서구 가달2로 46 (생곡동),35.1314681,128.8934608
부산광역시 강서구 가달2로 49 (생곡동),35.1311726,128.894783
부산광역시 강서구 가달2로 49(생곡동),35.1311726,128.894783
부산광역시 강서구 가달2로 52 (생곡동),35.1304107,128.8954199
부산광역시 강서구 가달2로 60 (생곡동),35.1320206,128.8944478
부산광역시 강서구 가달2로 67 (생곡동),35.1333284,128.8956932
부산광역시 강서구 가달2로 68 (생곡동),35.133409,128.8964984
부산광역시 강서구 가달2로16번길 18 (생곡동),35.1344912,128.8931306
부산광역시 강서구 가달2로16번길 26 (생곡동),35.1329575,128.8941607
부산광역시 강서구 가달2로16번길 4 (생곡동),35.1314788,128.8966594
부산광역시 강서구 가달2로55번길 16 (생곡동),35.1352461,128.8936864
"부산광역시 강서구 가달2로55번길 16, 에스에스엘인터내셔널(주) (생곡동)",35.138844,128.878162
부산광역시 강서구 가달2로55번길 20 (생곡동),35.1337797,128.8926741
부산광역시 강서구 가달2로55번길 28 (생곡동),35.1350101,128.8902307
부산광역시 강서구 가달2로55번길 32 (생곡동),35.1325868,128.892717
부산광역시 강서구 가달2로55번길 38 (생곡동),35.131607,128.893334
부산광역시 강서구 가달2로55번길 38(생곡동),35.131607,128.893334
부산광역시 강서구 가달2로55번길 50 (생곡동),35.1308957,128.8949303
부산광역시 강서구 가달2로55번길 54 (생곡동),35.1308299,128.8956571
부산광역시 강서구 가덕해안로2번길 570 (눌차동),35.0683941,128.8454219
부산광역시 강서구 가덕해안로2번나길 116(눌차동),35.0711243,128.8407373
부산광역시 강서구 가락대로 1268 (봉림동),35.1729253,128.8979886
부산광역시 강서구 가락대로 1326 (봉림동),35.1729253,128.8979886
부산광역시 강서구 가락대로 1371-1 (봉림동),35.1891327,128.9046172
부산광역시 강서구 가락대로 1374 (봉림동),35.1729253,128.8979886
부산광역시 강서구 가락대로 280 (송정동),35.1022917,128.8471963
부산광역시 강서구 가락대로 320 (송정동),35.1057859,128.8505023
부산광역시 강서구 가락대로 702 (생곡동),35.1356547,128.8708627
부산광역시 강서구 가락대로 704 (생곡동),35.1352226,128.870778
부산광역시 강서구 가락대로1182번길 136 (봉림동),35.1674746,128.8989523
부산광역시 강서구 가락대로1182번길 146 (봉림동),35.1685861,128.8994968
부산광역시 강서구 가락대로1303번길 57-1 (봉림동),35.1810741,128.8979712
부산광역시 강서구 가락대로1303번길 67-1 (봉림동),35.1812009,128.8975169
부산광역시 강서구 가락대로1397번길 103 (봉림동),35.192063,128.9002816
부산광역시 강서구 가락대로1397번길 105 (봉림동),35.1922127,128.9000274
부산광역시 강서구 가락대로1397번길 109 (봉림동),35.1923133,128.8998319
"부산광역시 강서구 가락대로1397번길 109, (567-23번지) (봉림동)",35.1923133,128.8998319
"부산광역시 강서구 가락대로1397번길 109, (567-24번지) (봉림동)",35.1923133,128.8998319
부산광역시 강서구 가락대로1397번길 133-12 (봉림동),35.1927599,128.8986916
부산광역시 강서구 가락대로1397번길 133-9 (봉림동),35.1924253,128.8994368
부산광역시 강서구 가락대로1397번길 137 (봉림동),35.1929027,128.8990006
부산광역시 강서구 가락대로1397번길 157-7 (봉림동),35.1948552,128.8941152
부산광역시 강서구 가락대로1397번길 157-9 (봉림동),35.1948552,128.8941152
부산광역시 강서구 가락대로1397번길 178 (봉림동),35.1935887,128.8970514
부산광역시 강서구 가락대로1397번길 243-1 (봉림동),35.1948492,128.8938314
부산광역시 강서구 가락대로1397번길 247 (봉림동),35.1875157,128.8970879
부산광역시 강서구 가락대로1397번길 266 (봉림동),35.1954444,128.8928189
부산광역시 강서구 가락대로1397번길 277(봉림동),35.1952564,128.8920262
부산광역시 강서구 가락대로1397번길 307 (봉림동),35.1925595,128.9007911
부산광역시 강서구 가락대로1397번길 311 (봉림동),35.1923951,128.9002347
부산광역시 강서구 가락대로1397번길 313 (봉림동),35.1926065,128.9000383
부산광역시 강서구 가락대로1397번길 337-7 (봉림동),35.1968351,128.8894101
부산광역시 강서구 가락대로1397번길 337-9 (봉림동),35.1968351,128.8894101
부산광역시 강서구 가락대로1397번길 55 (죽림동),35.1905701,128.9022449
부산광역시 강서구 가락대로1397번길 75 (봉림동),35.1911728,128.901204
부산광역시 강서구 가락대로1397번길 79 (봉림동),35.1912648,128.9010678
부산광역시 강서구 가락대로1397번길 81 (봉림동),35.1913696,128.9007988
부산광역시 강서구 가락대로1397번길 95 (봉림동),35.1919331,128.9005415
부산광역시 강서구 가락대로1397번길 99-10 (봉림동),35.1918362,128.8998728
부산광역시 강서구 가락대로1397번길 99-12 (봉림동),35.1919621,128.8996689
부산광역시 강서구 가락대로210번길 52 (송정동) (,35.103846,128.8418651
부산광역시 강서구 가락대로373번가길 3 (송정동),35.1161042,128.8434349
부산광역시 강서구 가락대로373번길 147-8 (송정동),35.1182912,128.8374301
부산광역시 강서구 가리새1로 10 (생곡동),35.1335152,128.8952904
부산광역시 강서구 가리새1로 21 (생곡동),35.1332995,128.8928938
부산광역시 강서구 가리새1로 9 (생곡동),35.1338054,128.8958874
부산광역시 강서구 가리새1로17번길 10 (생곡동),35.1335152,128.8952904
부산광역시 강서구 가리새1로17번길 14 (생곡동),35.1294852,128.8934392
부산광역시 강서구 가리새1로17번길 15 (생곡동),35.1356173,128.8940647
부산광역시 강서구 가리새1로17번길 15(생곡동),35.1356173,128.8940647
부산광역시 강서구 가리새1로17번길 17 (생곡동),35.1335958,128.8931691
부산광역시 강서구 가리새1로17번길 18(생곡동),35.1344912,128.8931306
부산광역시 강서구 가리새1로17번길 20 (생곡동),35.1335958,128.8931691
부산광역시 강서구 가리새1로17번길 21 (생곡동),35.1332995,128.8928938
"부산광역시 강서구 가리새1로17번길 21, 1층 (생곡동)",35.1304633,128.8811192
부산광역시 강서구 가리새1로17번길 25 (생곡동),35.1332494,128.8944294
부산광역시 강서구 가리새1로17번길 26 (생곡동),35.1329575,128.8941607
부산광역시 강서구 가리새1로25번길 14 (생곡동),35.1294852,128.8934392
부산광역시 강서구 가리새1로25번길 14(생곡동),35.1294852,128.8934392
부산광역시 강서구 가리새1로25번길 18 (생곡동),35.1344912,128.8931306
부산광역시 강서구 가리새1로25번길 24 (생곡동),35.1318303,128.8929984
부산광역시 강서구 가리새1로25번길 6 (미음동),35.1338054,128.8958874
부산광역시 강서구 가리새1로25번길 6 (생곡동),35.13371,128.8958894
부산광역시 강서구 가리새2로 10 (미음동),35.1623798,128.8589591
부산광역시 강서구 가리새2로 11(생곡동),35.1337457,128.8952117
부산광역시 강서구 가리새2로 12 (생곡동),35.1336023,128.8949709
부산광역시 강서구 가리새2로 37 (범방동),35.1599732,128.8864743
부산광역시 강서구 가리새2로 43 (범방동),35.160834,128.8864792
부산광역시 강서구 가리새2로 43(범방동),35.160834,128.8864792
"부산광역시 강서구 가리새2로 43, 2동, 혜성정밀 내 (범방동)",35.1408693,128.8850971
부산광역시 강서구 가리새2로 44 (범방동),35.1611003,128.886672
부산광역시 강서구 가리새2로 50 (범방동),35.1615515,128.8863564
부산광역시 강서구 가리새2로 55 (범방동),35.1615932,128.8858333
부산광역시 강서구 가리새2로 58 (범방동),35.1622095,128.8862263
부산광역시 강서구 가리새2로 7 (생곡동),35.1338859,128.8958694
부산광역시 강서구 가리새2로13번길 10 (미음동),35.1623798,128.8589591
부산광역시 강서구 가리새2로13번길 11 (생곡동),35.1337457,128.8952117
부산광역시 강서구 가리새2로13번길 14 (미음동),35.1449578,128.8761581
부산광역시 강서구 가리새2로13번길 14(생곡동),35.1294852,128.8934392
부산광역시 강서구 가리새2로13번길 18 (미음동),35.1426598,128.8730838
부산광역시 강서구 가리새2로13번길 26 (생곡동),35.1329575,128.8941607
"부산광역시 강서구 가리새2로13번길 26(생곡동, (주)한일정공 제2공장)",35.1329575,128.8941607
"부산광역시 강서구 가리새2로13번길 27, (주)에스에스엠 (생곡동)",35.1325238,128.8800328
부산광역시 강서구 가리새2로13번길 32 (미음동),35.1598148,128.8526438
부산광역시 강서구 가리새2로13번길 42 (생곡동),35.1300493,128.8930909
부산광역시 강서구 가리새2로13번길 7 (미음동),35.1659266,128.8594925
부산광역시 강서구 가리새3로 5 (생곡동),35.1336148,128.8959663
부산광역시 강서구 가리새3로 51(범방동),35.1615978,128.8863053
부산광역시 강서구 가리새3로 63 (범방동),35.1615138,128.8864515
부산광역시 강서구 가리새3로 73 (범방동),35.1613747,128.8871064
부산광역시 강서구 강동동 35-70번지,35.1667422,128.9126371
부산광역시 강서구 강동동 35-83번지,35.1669009,128.9109539
부산광역시 강서구 강동동 491-305번지,35.2109693,128.9347124
부산광역시 강서구 강동동 83-15번지,35.2165398,128.9354331
"부산광역시 강서구 강동동 86-4,5번지",35.218604,128.9328524
부산광역시 강서구 강동송백2길 14 (강동동),35.1460974,128.9152742
부산광역시 강서구 강동송백2길 59 (강동동),35.1459627,128.9099391
"부산광역시 강서구 강동중곡2길 251, 주식회사 늘찬축산(강동동)",35.1663124,128.9090792
부산광역시 강서구 강동중곡2길 253 (강동동),35.1639117,128.9083322
부산광역시 강서구 강동중곡2길 255 (강동동),35.163903,128.9085319
부산광역시 강서구 강동중곡2길 287 (강동동),35.1635989,128.9114593
"부산광역시 강서구 강동중곡2길 287, C동 (강동동)",35.1635989,128.9114593
부산광역시 강서구 강동중곡2길 53 (강동동),35.1652664,128.9101519
부산광역시 강서구 강동중곡2길 9 (강동동),35.1638443,128.9119132
부산광역시 강서구 강동중곡3길 115 (강동동),35.1648639,128.9086546
부산광역시 강서구 강동중곡3길 12 (강동동),35.1649676,128.9100893
부산광역시 강서구 강동중곡3길 135 (강동동),35.1649644,128.9088848
부산광역시 강서구 강동중곡3길 139 (강동동),35.1640592,128.9087455
부산광역시 강서구 강동중곡3길 159(강동동),35.1652982,128.9079558
부산광역시 강서구 강동중곡3길 54 (강동동),35.1666541,128.908287
부산광역시 강서구 강동중곡3길 80 (강동동),35.166132,128.9068652
부산광역시 강서구 강동중곡3길 80-1 (강동동),35.1661737,128.9071993
부산광역시 강서구 경전철로 157 (대저2동),35.1983594,128.9607296
부산광역시 강서구 경전철로 158-9 (대저2동),35.1935924,128.9614116
부산광역시 강서구 경전철로 159 (대저2동),35.1934236,128.9616688
부산광역시 강서구 경전철로 204-1 (대저1동),35.1983594,128.9607296
부산광역시 강서구 경전철로 208 (대저1동),35.1970849,128.964186
부산광역시 강서구 경전철로 208-1 (대저1동),35.1970849,128.964186
부산광역시 강서구 경전철로 211-1 (대저2동) A동,35.1972736,128.9631198
부산광역시 강서구 경전철로 213 (대저2동),35.197627,128.9631141
부산광역시 강서구 경전철로 215 (대저2동),35.1978889,128.9633939
부산광역시 강서구 경전철로 225 (대저2동),35.1987576,128.9633097
부산광역시 강서구 경전철로 225-1 (대저2동),35.198486,128.9628914
부산광역시 강서구 경전철로 231 (대저2동),35.1991299,128.9631999
부산광역시 강서구 경전철로 231-1 (대저2동),35.1989523,128.9629727
부산광역시 강서구 경전철로 396 (대저1동),35.2141954,128.9634624
부산광역시 강서구 경전철로 42 (대저2동),35.1836558,128.9569314
부산광역시 강서구 경전철로188번길 101 (대저1동),35.1996679,128.9667823
부산광역시 강서구 경전철로188번길 105 (대저1동),35.1996679,128.9667823
부산광역시 강서구 경전철로188번길 125-11 (대저1동),35.1996679,128.9667823
부산광역시 강서구 경전철로188번길 125-16 (대저1동),35.1996679,128.9667823
부산광역시 강서구 경전철로188번길 125-7(대저1동),35.1996679,128.9667823
부산광역시 강서구 경전철로188번길 145-10(대저1동),35.2008477,128.9672955
부산광역시 강서구 경전철로188번길 145-19 (대저1동),35.2008004,128.9668985
부산광역시 강서구 경전철로188번길 69 (대저1동),35.1996679,128.9667823
부산광역시 강서구 경전철로188번길 95-12(대저1동),35.1986306,128.9665806
부산광역시 강서구 경전철로39번길 12 (대저2동),35.1844594,128.9563062
부산광역시 강서구 경전철로39번나길 6 (대저2동),35.1847217,128.9559547
부산광역시 강서구 공작길 52 (강동동),35.1794547,128.9164527
부산광역시 강서구 공작길 64 (강동동),35.1796941,128.916496
부산광역시 강서구 공작길 75 (강동동),35.1789425,128.9161231
부산광역시 강서구 공작길 8-20 (강동동),35.1776403,128.9163138
부산광역시 강서구 공작길 8-22 (강동동),35.1777866,128.9163912
부산광역시 강서구 공작길 8-28 (강동동),35.1779744,128.91648
부산광역시 강서구 공작길 86 (강동동),35.1812903,128.9165448
부산광역시 강서구 공항로 1105-3 (대저1동),35.2174451,128.9518183
부산광역시 강서구 공항로 1105-4 (대저1동),35.2174451,128.9518183
부산광역시 강서구 공항로 1117 (대저1동),35.2165346,128.9534289
부산광역시 강서구 공항로 1197 (대저1동),35.2192874,128.9581205
부산광역시 강서구 공항로 1223 (대저1동),35.2170479,128.9576076
부산광역시 강서구 공항로 1263 (대저1동),35.2191528,128.9622391
부산광역시 강서구 공항로 345 (대저2동),35.1395787,128.9477243
부산광역시 강서구 공항로 351-7 (대저2동),35.1784023,128.9286953
부산광역시 강서구 공항로 401 (대저2동),35.153965,128.9435356
부산광역시 강서구 공항로 461 (대저2동),35.153965,128.9435356
부산광역시 강서구 공항로1207번길 16 (대저1동),35.2094889,128.9799911
부산광역시 강서구 공항로1207번길 22 (대저1동),35.209057,128.9805897
부산광역시 강서구 공항로1207번길 32 (대저1동),35.2093389,128.980168
부산광역시 강서구 공항로1207번길 36 (대저1동),35.2094889,128.9799911
부산광역시 강서구 공항로1207번길 38 (대저1동),35.2094889,128.9799911
부산광역시 강서구 공항로1207번길 39 (대저1동),35.2094964,128.9796504
부산광역시 강서구 공항로1309번가길 21 (대저1동),35.2163738,128.9863222
부산광역시 강서구 공항로1309번가길 42-3(대저1동),35.2223931,128.9995369
부산광역시 강서구 공항로1309번길 198-6(대저1동),35.2159412,128.978322
부산광역시 강서구 공항로1309번길 95-15 (대저1동),35.2147038,128.9836418
부산광역시 강서구 공항로1347번길 100-1 (대저1동),35.2148951,128.9988047
부산광역시 강서구 공항로1347번길 102-1 (대저1동),35.2187957,128.9848983
부산광역시 강서구 공항로1347번길 58(대저1동),35.218724,128.9862769
부산광역시 강서구 공항로1347번길 62 (대저1동),35.218724,128.9862769
부산광역시 강서구 공항로1347번길 66 (대저1동),35.218724,128.9862769
부산광역시 강서구 공항로1347번길 66-1 (대저1동),35.2185364,128.9984011
부산광역시 강서구 공항로1347번길 72-10 (대저1동),35.2186231,128.9867328
부산광역시 강서구 공항로1347번길 72-9 (대저1동),35.2186439,128.9862728
부산광역시 강서구 공항로1347번길 80 (대저1동),35.2184281,128.9859967
부산광역시 강서구 공항로1347번길 88-15(대저1동),35.2192184,128.9856789
부산광역시 강서구 공항로1347번길 88-4 (대저1동),35.2192184,128.9856789
부산광역시 강서구 공항로1347번길 88-7 (대저1동),35.2192184,128.9856789
부산광역시 강서구 공항로1347번길 88-8 (대저1동),35.2192184,128.9856789
부산광역시 강서구 공항로1347번길 96 (대저1동),35.2187749,128.9853517
부산광역시 강서구 공항로1347번길 98-1 (대저1동),35.2150702,128.9983356
부산광역시 강서구 공항로1347번길 98-2 (대저1동),35.2150702,128.9983356
부산광역시 강서구 공항로1347번길 98-3 (대저1동),35.2150702,128.9983356
부산광역시 강서구 공항로1347번길 98-4 (대저1동),35.2150702,128.9983356
부산광역시 강서구 공항로1409번길 22-3 (대저1동),35.2236014,128.9905981
부산광역시 강서구 공항로1409번길 43-10 (대저1동),35.1968047,128.9346204
부산광역시 강서구 공항로1409번길 43-11 (대저1동),35.1981524,128.9358855
부산광역시 강서구 공항로1409번길 43-12 (대저1동),35.1969694,128.9348825
부산광역시 강서구 공항로1409번길 43-13 (대저1동),35.1972787,128.9355702
부산광역시 강서구 공항로1409번길 43-16 (대저1동),35.2208156,129.0000888
부산광역시 강서구 공항로1409번길 43-18 (대저1동),35.1979394,128.9363871
부산광역시 강서구 공항로1409번길 43-3 (대저1동),35.2208156,129.0000888
부산광역시 강서구 공항로1409번길 51 (대저1동),35.2234128,128.9899593
부산광역시 강서구 공항로1409번길 53-1 (대저1동),35.2188492,129.000147
부산광역시 강서구 공항로1409번길 61-10 (대저1동),35.2170491,129.0000459
부산광역시 강서구 공항로1409번길 61-11 (대저1동),35.2170491,129.0000459
부산광역시 강서구 공항로1409번길 61-16 (대저1동),35.2170491,129.0000459
부산광역시 강서구 공항로1409번길 61-18 (대저1동),35.2170491,129.0000459
부산광역시 강서구 공항로1409번길 61-5(대저1동),35.2170491,129.0000459
부산광역시 강서구 공항로1409번길 61-6 (대저1동),35.2170491,129.0000459
부산광역시 강서구 공항로1409번길 73 (대저1동),35.2234128,128.9899593
부산광역시 강서구 공항로1409번길 81 (대저1동),35.2234128,128.9899593
부산광역시 강서구 공항로1409번길 81-1 (대저1동),35.2169655,128.9990376
부산광역시 강서구 공항로1409번길 81-2 (대저1동),35.2170107,128.9989086
부산광역시 강서구 공항로283번길 2-3 (대저2동),35.1343762,128.9452446
부산광역시 강서구 공항로301번가길 23 (대저2동),35.1349755,128.9448104
부산광역시 강서구 공항로339번길 112 (대저2동),35.143537,128.9466564
부산광역시 강서구 공항로339번길 126 (대저2동),35.1439804,128.9465452
부산광역시 강서구 공항로339번길 137-11 (대저2동),35.1443195,128.9455977
부산광역시 강서구 공항로339번길 137-26 (대저2동),35.1443964,128.944871
부산광역시 강서구 공항로339번길 137-5 (대저2동),35.1442145,128.9458894
부산광역시 강서구 공항로339번길 137-6 (대저2동),35.1442881,128.9461424
부산광역시 강서구 공항로339번길 156 (대저2동),35.145355,128.9462055
부산광역시 강서구 공항로339번길 168-16 (대저2동),35.1456962,128.9467275
부산광역시 강서구 공항로339번길 213 (대저2동),35.1479187,128.9453869
부산광역시 강서구 공항로339번길 228-11 (대저2동),35.1487738,128.9461134
부산광역시 강서구 공항로339번길 228-13 (대저2동),35.1487501,128.9462602
부산광역시 강서구 공항로339번길 26-13 (대저2동),35.1723671,128.9601935
부산광역시 강서구 공항로339번길 26-7 (대저2동),35.139726,128.9473299
부산광역시 강서구 공항로339번길 40 (대저2동),35.1442881,128.9461424
부산광역시 강서구 공항로339번길 59-14 (대저2동),35.1405506,128.9461927
부산광역시 강서구 공항로339번길 75 (대저2동),35.1418319,128.9462657
부산광역시 강서구 공항로339번길 84 (대저2동),35.1442881,128.9461424
부산광역시 강서구 공항로361번가길 53 (대저2동) (,35.1427982,128.9473866
부산광역시 강서구 공항로361번가길 63 (대저2동),35.1427982,128.9473866
부산광역시 강서구 공항로361번가길 67 (대저2동),35.1427982,128.9473866
"부산광역시 강서구 공항로361번가길 68, 가동 (대저2동)",35.1436472,128.9473128
부산광역시 강서구 공항로361번가길 69 (대저2동),35.1427982,128.9473866
부산광역시 강서구 공항로383번길 54 (대저2동),35.1425449,128.9467184
부산광역시 강서구 공항로393번길 15-1 (대저2동),35.144506,128.9477657
부산광역시 강서구 공항로393번길 21 (대저2동),35.1436093,128.9488224
부산광역시 강서구 공항로393번길 37-1(대저2동),35.1876802,128.933755
부산광역시 강서구 공항로393번길 60-11 (대저2동),35.1450149,128.9469358
부산광역시 강서구 공항로393번길 60-20 (대저2동),35.1321008,128.9322477
부산광역시 강서구 공항로393번길 60-22 (대저2동),35.1454586,128.9474885
부산광역시 강서구 공항로393번길 60-24 (대저2동),35.1316245,128.932995
부산광역시 강서구 공항로393번길 60-27 (대저2동),35.1450474,128.9465795
부산광역시 강서구 공항로533번가길 17 (대저2동),35.1562078,128.9380994
부산광역시 강서구 공항로533번가길 54 (대저2동),35.1546075,128.9372041
부산광역시 강서구 공항로533번가길 70 (대저2동),35.1539184,128.9369141
부산광역시 강서구 공항로533번길 273 (대저2동),35.1546604,128.9411976
부산광역시 강서구 공항로533번길 337 (대저2동),35.156271,128.938436
부산광역시 강서구 공항로533번길 342-29 (대저2동),35.1568545,128.9390903
부산광역시 강서구 공항로533번길 354-22 (대저2동),35.1576551,128.939533
부산광역시 강서구 공항로533번길 354-6 (대저2동),35.1567397,128.9387827
부산광역시 강서구 공항로533번나길 15 (대저2동),35.1557135,128.9369687
부산광역시 강서구 공항로743번길 13 (대저2동),35.1730484,128.9589533
부산광역시 강서구 공항로743번길 23 (대저2동),35.1728594,128.9584626
부산광역시 강서구 공항로743번길 48-37 (대저2동),35.1457053,128.939298
부산광역시 강서구 공항로743번길 48-39 (대저2동),35.1453937,128.9391474
부산광역시 강서구 공항로743번길 48-47 (대저2동),35.1742474,128.9557508
부산광역시 강서구 공항로743번길 48-52 (대저2동),35.1746806,128.9563673
부산광역시 강서구 공항로743번길 5-36 (대저2동),35.1720828,128.9576169
부산광역시 강서구 공항로743번길 71 (대저2동),35.1718449,128.956131
부산광역시 강서구 공항로767번길 32 (대저2동),35.1749783,128.9573589
부산광역시 강서구 공항로767번나길 36 (대저2동),35.1766918,128.9572483
부산광역시 강서구 공항로767번다길 16 (대저2동),35.173754,128.9577265
부산광역시 강서구 공항로767번다길 2 (대저2동),35.1744143,128.9564158
부산광역시 강서구 공항로767번다길 30-1 (대저2동),35.1876802,128.933755
부산광역시 강서구 공항로767번다길 30-2 (대저2동),35.1731403,128.9283061
부산광역시 강서구 공항로767번다길 30-4 (대저2동),35.173754,128.9577265
부산광역시 강서구 공항로767번다길 32 (대저2동),35.1731567,128.9573496
부산광역시 강서구 공항로791번길 46 (대저2동),35.1762416,128.9554777
부산광역시 강서구 공항로811번가길 29 (대저2동),35.1786085,128.9567724
부산광역시 강서구 공항로811번나길 114 (대저2동),35.176483,128.9531866
부산광역시 강서구 공항로811번나길 120 (대저2동),35.176483,128.9531866
부산광역시 강서구 공항로811번나길 16 (대저2동),35.178048,128.9561609
부산광역시 강서구 공항로811번나길 22 (대저2동),35.1779845,128.9559801
부산광역시 강서구 공항로811번나길 24 (대저2동),35.176483,128.9531866
부산광역시 강서구 공항로811번나길 57 (대저2동),35.176483,128.9531866
부산광역시 강서구 공항로811번나길 71 (대저2동),35.1762939,128.9538755
부산광역시 강서구 공항로811번나길 75 (대저2동),35.176483,128.9531866
부산광역시 강서구 공항로811번나길 81 (대저2동),35.176483,128.9531866
부산광역시 강서구 공항로811번나길 81-1 (대저2동),35.1876802,128.933755
부산광역시 강서구 공항앞길 105 (대저2동),35.1779089,128.9525059
부산광역시 강서구 공항앞길 105-1 (대저2동),35.1779089,128.9525059
"부산광역시 강서구 공항앞길 108, 가동(대저2동)",35.1769188,128.9505201
부산광역시 강서구 공항앞길 116 (대저2동),35.1768502,128.9507564
부산광역시 강서구 공항앞길13번길 20(대저2동),35.1785444,128.954321
부산광역시 강서구 공항앞길13번길 35 (대저2동),35.1787918,128.9551134
부산광역시 강서구 공항앞길13번길 42-32 (대저2동),35.1779235,128.9533181
부산광역시 강서구 공항앞길13번길 54 (대저2동),35.1777545,128.9548631
부산광역시 강서구 공항앞길163번길 37 (대저2동),35.1756803,128.9517846
부산광역시 강서구 공항앞길163번길 67 (대저2동),35.1745027,128.9515932
부산광역시 강서구 공항앞길163번길 69 (대저2동),35.1745027,128.9515932
부산광역시 강서구 공항앞길33번길 55 (대저2동),35.1777627,128.9545074
부산광역시 강서구 공항앞길33번길 85-1 (대저2동),35.1772686,128.9543077
부산광역시 강서구 공항앞길33번길 86-1 (대저2동),35.1762561,128.9543186
부산광역시 강서구 공항앞길33번길 9 (대저2동),35.1792707,128.9535941
부산광역시 강서구 공항앞길33번길 92 (대저2동),35.1761672,128.9549696
부산광역시 강서구 공항앞길33번길 94-15(대저2동),35.175848,128.9547463
부산광역시 강서구 공항앞길33번길 94-5(대저2동),35.175848,128.9547463
부산광역시 강서구 공항앞길33번길 94-8 (대저2동),35.175848,128.9547463
부산광역시 강서구 공항앞길33번길 95 (대저2동),35.1772686,128.9543077
부산광역시 강서구 공항앞길51번길 28 (대저2동),35.1780044,128.952768
부산광역시 강서구 공항앞길51번길 38 (대저2동),35.1774832,128.9530287
부산광역시 강서구 공항앞길51번길 49 (대저2동),35.1773585,128.9535278
부산광역시 강서구 공항앞길51번길 50 (대저2동),35.1771469,128.9532696
부산광역시 강서구 공항앞길51번길 52 (대저2동),35.1770165,128.9533383
부산광역시 강서구 공항앞길85번길 10 (대저2동),35.1763793,128.9527683
부산광역시 강서구 공항앞길85번길 100 (대저2동),35.1736194,128.9538816
부산광역시 강서구 공항앞길85번길 101 (대저2동),35.1763793,128.9527683
부산광역시 강서구 공항앞길85번길 101-1 (대저2동),35.1763793,128.9527683
부산광역시 강서구 공항앞길85번길 101-2 (대저2동),35.1763793,128.9527683
부산광역시 강서구 공항앞길85번길 104(대저2동),35.1763793,128.9527683
부산광역시 강서구 공항앞길85번길 106 (대저2동),35.1763793,128.9527683
부산광역시 강서구 공항앞길85번길 107 (대저2동),35.1763793,128.9527683
부산광역시 강서구 공항앞길85번길 107-1 (대저2동),35.1763793,128.9527683
부산광역시 강서구 공항앞길85번길 107-2 (대저2동),35.1763793,128.9527683
부산광역시 강서구 공항앞길85번길 116 (대저2동),35.1763793,128.9527683
부산광역시 강서구 공항앞길85번길 122-1 (대저2동),35.1763793,128.9527683
부산광역시 강서구 공항앞길85번길 125 (대저2동),35.1763793,128.9527683
부산광역시 강서구 공항앞길85번길 127 (대저2동),35.1763793,128.9527683
부산광역시 강서구 공항앞길85번길 134-1 (대저2동),35.1763793,128.9527683
부산광역시 강서구 공항앞길85번길 22-1 (대저2동),35.1766186,128.9521315
부산광역시 강서구 공항앞길85번길 29 (대저2동),35.1767267,128.9529353
부산광역시 강서구 공항앞길85번길 41 (대저2동),35.1763793,128.9527683
부산광역시 강서구 공항앞길85번길 55 (대저2동),35.1755634,128.9534575
부산광역시 강서구 공항앞길85번길 55-1 (대저2동),35.1756225,128.9536327
부산광역시 강서구 공항앞길85번길 55-2 (대저2동),35.1757011,128.9538301
부산광역시 강서구 공항앞길85번길 61-1 (대저2동),35.175484,128.9538155
부산광역시 강서구 공항앞길85번길 61-2 (대저2동),35.1756155,128.954175
부산광역시 강서구 공항앞길85번길 7(대저2동),35.1776001,128.9522637
부산광역시 강서구 공항앞길85번길 74 (대저2동),35.1763793,128.9527683
부산광역시 강서구 공항앞길85번길 78 (대저2동),35.1763793,128.9527683
부산광역시 강서구 공항앞길85번길 86 (대저2동),35.1742573,128.9535772
부산광역시 강서구 공항앞길85번길 90 (대저2동),35.1763793,128.9527683
부산광역시 강서구 공항앞길85번길 96 (대저2동),35.1737525,128.9538085
부산광역시 강서구 과학산단1로 104 (지사동),35.1422895,128.8238707
부산광역시 강서구 과학산단1로 107 (지사동),35.1414416,128.8246248
부산광역시 강서구 과학산단1로 108 (지사동),35.1418459,128.8242832
부산광역시 강서구 과학산단1로 111 (지사동),35.1412175,128.8241792
부산광역시 강서구 과학산단1로 114 (지사동),35.141452,128.8236153
부산광역시 강서구 과학산단1로 115 (지사동),35.1408557,128.8236905
부산광역시 강서구 과학산단1로 121 (지사동),35.1406389,128.8232307
부산광역시 강서구 과학산단1로 129(지사동),35.1403176,128.8226163
부산광역시 강서구 과학산단1로 135 (지사동),35.1399254,128.8219693
부산광역시 강서구 과학산단1로 139 (지사동),35.1397228,128.8215371
부산광역시 강서구 과학산단1로 145 (지사동),35.1392578,128.8209947
부산광역시 강서구 과학산단1로 151 (지사동),35.1391417,128.8204273
부산광역시 강서구 과학산단1로 163 (지사동),35.1385891,128.8197743
부산광역시 강서구 과학산단1로 171(지사동),35.1380337,128.8192596
부산광역시 강서구 과학산단1로 20 (지사동),35.1471388,128.8302508
부산광역시 강서구 과학산단1로 25 (지사동),35.1465143,128.8312848
"부산광역시 강서구 과학산단1로 31 (지사동, 자동차부품공장(아파트형공장))",35.1460974,128.8306901
"부산광역시 강서구 과학산단1로 31, 1층(지사동) 1층",35.1460974,128.8306901
"부산광역시 강서구 과학산단1로 31, 자동차부품공장동 1층 1,2 호 (지사동, 자동차부품공장(아파트형공장))",35.1460974,128.8306901
부산광역시 강서구 과학산단1로 46 (지사동),35.1458852,128.8290309
부산광역시 강서구 과학산단1로 54 (지사동),35.1447327,128.8283212
부산광역시 강서구 과학산단1로 63 (지사동),35.1431914,128.8280279
부산광역시 강서구 과학산단1로 66 (지사동),35.143158,128.8263211
부산광역시 강서구 과학산단1로 71 (지사동),35.1431914,128.8280279
부산광역시 강서구 과학산단1로 8 (지사동),35.1482375,128.830398
부산광역시 강서구 과학산단1로 81 (지사동),35.1431914,128.8280279
부산광역시 강서구 과학산단1로 96 (지사동),35.1434449,128.8245704
부산광역시 강서구 과학산단1로103번길 11 (지사동),35.1406773,128.8251427
부산광역시 강서구 과학산단1로103번길 17 (지사동),35.1404789,128.824884
부산광역시 강서구 과학산단1로103번길 20 (지사동),35.1407478,128.8243073
부산광역시 강서구 과학산단1로103번길 21 (지사동),35.1401743,128.8243421
부산광역시 강서구 과학산단1로103번길 24 (지사동),35.1405353,128.8238881
부산광역시 강서구 과학산단1로103번길 27 (지사동),35.1398397,128.82397
부산광역시 강서구 과학산단1로103번길 28 (지사동),35.140183,128.8234555
부산광역시 강서구 과학산단1로103번길 28(지사동),35.140183,128.8234555
부산광역시 강서구 과학산단1로103번길 33 (지사동),35.139403,128.8233664
부산광역시 강서구 과학산단1로103번길 33(지사동),35.139403,128.8233664
부산광역시 강서구 과학산단1로103번길 34 (지사동),35.1401372,128.823038
부산광역시 강서구 과학산단1로103번길 38 (지사동),35.1398942,128.8225824
부산광역시 강서구 과학산단1로103번길 41 (지사동),35.1392099,128.8227357
부산광역시 강서구 과학산단1로103번길 42 (지사동),35.1396816,128.8221654
부산광역시 강서구 과학산단1로103번길 47 (지사동),35.1389021,128.8221346
부산광역시 강서구 과학산단1로103번길 48 (지사동),35.1394144,128.8216865
부산광역시 강서구 과학산단1로103번길 48(지사동),35.1394144,128.8216865
부산광역시 강서구 과학산단1로103번길 49 (지사동),35.1388754,128.8218204
부산광역시 강서구 과학산단1로103번길 52 (지사동),35.1390656,128.8212868
부산광역시 강서구 과학산단1로103번길 53 (지사동),35.1386137,128.8213262
부산광역시 강서구 과학산단1로103번길 57(지사동),35.1384918,128.8210989
부산광역시 강서구 과학산단1로103번길 59 (지사동),35.1397061,128.8231521
부산광역시 강서구 과학산단1로103번길 62 (지사동),35.13894,128.8206579
부산광역시 강서구 과학산단1로103번길 8 (지사동),35.1410493,128.82478
부산광역시 강서구 과학산단1로60번길 12 (지사동),35.1451511,128.8277723
부산광역시 강서구 과학산단1로60번길 30 (지사동),35.1464794,128.8272908
부산광역시 강서구 과학산단1로60번길 30 (지사동) 8동 1층,35.1464794,128.8272908
"부산광역시 강서구 과학산단1로60번길 30, (지사동,1274) (지사동)",35.1464794,128.8272908
"부산광역시 강서구 과학산단1로60번길 30, 4동 303호(지사동)",35.1464794,128.8272908
"부산광역시 강서구 과학산단1로60번길 30, 4동 3층 302호(지사동)(지사동)",35.1464794,128.8272908
"부산광역시 강서구 과학산단1로60번길 30, 5동 303호(지사동)",35.1464794,128.8272908
"부산광역시 강서구 과학산단1로60번길 30, 7동 402호 (지사동)",35.1464794,128.8272908
"부산광역시 강서구 과학산단1로60번길 30, 7동 603호(지사동)",35.1464794,128.8272908
"부산광역시 강서구 과학산단1로60번길 30, 9동 103호(지사동)",35.1464794,128.8272908
"부산광역시 강서구 과학산단1로60번길 30, 디지털센터 104-3호 (지사동)",35.1464794,128.8272908
"부산광역시 강서구 과학산단1로60번길 30, 부산테크노파크 4동 310호 (지사동)",35.1464794,128.8272908
"부산광역시 강서구 과학산단1로60번길 30, 부산테크노파크 지사단지 8동, 3층(지사동)",35.1447485,128.8262491
"부산광역시 강서구 과학산단1로60번길 30, 실험동 402호 (지사동)",35.1464794,128.8272908
"부산광역시 강서구 과학산단1로60번길 30, 자동차센터 212호 (지사동)",35.1464794,128.8272908
"부산광역시 강서구 과학산단1로60번길 31 (지사동) 부산테크노파크 1동 101호, 104호, 2B동 210호",35.1445054,128.8259172
부산광역시 강서구 과학산단1로60번길 31 (지사동) 부산테크노파크 1동 103호,35.1445054,128.8259172
부산광역시 강서구 과학산단1로60번길 31 (지사동) 부산테크노파크 201호,35.1445054,128.8259172
부산광역시 강서구 과학산단1로60번길 31 (지사동) 부산테크노파크 2A동 404호,35.1445054,128.8259172
부산광역시 강서구 과학산단1로60번길 31 (지사동) 부산테크노파크 4동 307호,35.1445054,128.8259172
"부산광역시 강서구 과학산단1로60번길 31, (재)부산테크노파크 Post-Bi동 204, 205호 (지사동)",35.1445054,128.8259172
"부산광역시 강서구 과학산단1로60번길 31, (재)부산테크노파크 시험생산동 102호 (지사동)",35.1445054,128.8259172
"부산광역시 강서구 과학산단1로60번길 31, (재)부산테크노파크 시험생산동동 102, 103호 (지사동)",35.1445054,128.8259172
"부산광역시 강서구 과학산단1로60번길 31, 13동 7층 701호(지사동, 부산테크노파크) 13동 7층 701호",35.1446519,128.8264229
"부산광역시 강서구 과학산단1로60번길 31, 13동 7층 708호(지사동, 부산테크노파크) 13동 7층 708호",35.1446519,128.8264229
"부산광역시 강서구 과학산단1로60번길 31, 1동 106호(지사동) 1동 106호",35.1446519,128.8264229
"부산광역시 강서구 과학산단1로60번길 31, 1동 2층 205호(지사동, 부산테크노파크) 1동 2층 205호",35.1446519,128.8264229
"부산광역시 강서구 과학산단1로60번길 31, 2A동 4층 403호(지사동, 부산테크노파크) 2A동 4층 403호",35.1446519,128.8264229
"부산광역시 강서구 과학산단1로60번길 31, 2B동 106호(지사동, 부산테크노파크) 2B동 106호",35.1446519,128.8264229
"부산광역시 강서구 과학산단1로60번길 31, 2B동 1층 107호(지사동, 부산테크노파크) 2B동 1층 107호",35.1446519,128.8264229
"부산광역시 강서구 과학산단1로60번길 31, 2B동 205호(지사동) 2B동 205호",35.1446519,128.8264229
"부산광역시 강서구 과학산단1로60번길 31, 2B동 206호(지사동, 부산테크노파크) 2B동 206호",35.1446519,128.8264229
"부산광역시 강서구 과학산단1로60번길 31, 2층 202-2 (지사동)",35.1446519,128.8264229
"부산광역시 강서구 과학산단1로60번길 31, B동 2층 210 (지사동)",35.1446519,128.8264229
"부산광역시 강서구 과학산단1로60번길 31, B동 2층 210호(지사동, 부산테크노파크) B동 2층 210호",35.1446519,128.8264229
"부산광역시 강서구 과학산단1로60번길 31, POST BI동 1층 101-1 (지사동)",35.1446519,128.8264229
"부산광역시 강서구 과학산단1로60번길 31, POST BI동 2층 208호 (지사동)",35.1446519,128.8264229
"부산광역시 강서구 과학산단1로60번길 31, POST-BI동 1층 101,102.106,107 (지사동)",35.1446519,128.8264229
"부산광역시 강서구 과학산단1로60번길 31, postbi동 1층 103, 104 (지사동)",35.1446519,128.8264229
"부산광역시 강서구 과학산단1로60번길 31, POST-BI동 2층 209 (지사동)",35.1446519,128.8264229
"부산광역시 강서구 과학산단1로60번길 31, 기계센터장비동 3층 303 (지사동)",35.1446519,128.8264229
"부산광역시 강서구 과학산단1로60번길 31, 기계장비동 301호(지사동, 부산테크노파크) 기계장비동 301호",35.1446519,128.8264229
"부산광역시 강서구 과학산단1로60번길 31, 부산테크노파크 202호 (지사동)",35.1446519,128.8264229
"부산광역시 강서구 과학산단1로60번길 31, 선도기업동 4층 401 (지사동)",35.1446519,128.8264229
"부산광역시 강서구 과학산단1로60번길 31, 선도기업동 5층 503,504호.9동103호 (지사동)",35.1446519,128.8264229
"부산광역시 강서구 과학산단1로60번길 31, 시험생산동 1층 101,104호 (지사동)",35.1446519,128.8264229
"부산광역시 강서구 과학산단1로60번길 31, 시험생산동 1층 102,103 (지사동)",35.1446519,128.8264229
"부산광역시 강서구 과학산단1로60번길 31, 시험생산동 1층 102호 (지사동)",35.1446519,128.8264229
"부산광역시 강서구 과학산단1로60번길 31, 시험생산동 2층 206 (지사동) 시험생산동 2층 206호",35.1446519,128.8264229
"부산광역시 강서구 과학산단1로60번길 31, 자동차시험동 3층 312 (지사동)",35.1446519,128.8264229
"부산광역시 강서구 과학산단1로60번길 31, 포스트비아이임대공장동 2층 202,207 (지사동)",35.1446519,128.8264229
부산광역시 강서구 과학산단1로60번길 32 (지사동),35.1455473,128.826607
"부산광역시 강서구 과학산단1로60번길 32, 12동 405호(지사동)",35.1455473,128.826607
"부산광역시 강서구 과학산단1로60번길 32, 12동 409호, 410호(지사동)",35.1455473,128.826607
"부산광역시 강서구 과학산단1로60번길 32, POST-BI동,401호 (지사동)",35.1455473,128.826607
"부산광역시 강서구 과학산단1로60번길 32, 스마트부품센터 304호 (지사동)",35.1455473,128.826607
"부산광역시 강서구 과학산단1로60번길 32, 스마트전자부품 기술지원센터 406호 (지사동)",35.1455473,128.826607
"부산광역시 강서구 과학산단1로60번길 32, 스마트전자부품 기술지원센터 4층 409호 (지사동)",35.1455473,128.826607
부산광역시 강서구 과학산단2로 31 (지사동),35.1515256,128.8299123
부산광역시 강서구 과학산단2로19번길 100-118 (지사동),35.1510132,128.8201298
"부산광역시 강서구 과학산단2로19번길 100-47, 1-2블럭 (지사동)",35.1510132,128.8201298
부산광역시 강서구 과학산단2로19번길 100-51 (지사동),35.1510132,128.8201298
부산광역시 강서구 과학산단2로19번길 100-54 (지사동),35.1510132,128.8201298
부산광역시 강서구 과학산단2로19번길 100-54(지사동),35.1510132,128.8201298
부산광역시 강서구 과학산단2로19번길 100-56(지사동),35.1510132,128.8201298
부산광역시 강서구 과학산단2로19번길 100-58 (지사동),35.1510132,128.8201298
부산광역시 강서구 과학산단2로19번길 100-60 (지사동),35.1510132,128.8201298
부산광역시 강서구 과학산단2로19번길 100-62 (지사동),35.1510132,128.8201298
부산광역시 강서구 과학산단2로19번길 100-68 (지사동),35.1510132,128.8201298
부산광역시 강서구 과학산단2로19번길 100-70 (지사동),35.1510132,128.8201298
부산광역시 강서구 과학산단2로19번길 100-72 (지사동),35.1510132,128.8201298
부산광역시 강서구 과학산단2로19번길 100-74 (지사동) (주)알오씨,35.1435618,128.8415189
"부산광역시 강서구 과학산단2로19번길 100-76, 1-13블럭 (지사동)",35.1510132,128.8201298
부산광역시 강서구 과학산단2로19번길 100-88(지사동),35.1510132,128.8201298
부산광역시 강서구 과학산단2로19번길 100-96 (지사동),35.1510132,128.8201298
부산광역시 강서구 과학산단2로19번길 112 (지사동),35.1522708,128.8189589
부산광역시 강서구 과학산단2로19번길 116(지사동),35.1524118,128.8183599
부산광역시 강서구 과학산단2로19번길 126 (지사동),35.1525438,128.8172319
부산광역시 강서구 과학산단2로19번길 132 (지사동),35.1525165,128.8168705
부산광역시 강서구 과학산단2로19번길 132(지사동),35.1525165,128.8168705
부산광역시 강서구 과학산단2로19번길 136 (지사동),35.1524585,128.8161192
부산광역시 강서구 과학산단2로19번길 142 (지사동),35.1524887,128.8157881
부산광역시 강서구 과학산단2로19번길 146 (지사동),35.1524596,128.8152928
부산광역시 강서구 과학산단2로19번길 147 (지사동),35.1510132,128.8201298
부산광역시 강서구 과학산단2로19번길 150(지사동),35.1524456,128.8146879
부산광역시 강서구 과학산단2로19번길 156 (지사동),35.1522916,128.8141365
부산광역시 강서구 과학산단2로19번길 160 (지사동),35.1522441,128.8136883
부산광역시 강서구 과학산단2로19번길 164 (지사동),35.1523936,128.8130345
부산광역시 강서구 과학산단2로19번길 170 (지사동),35.1524272,128.8124554
부산광역시 강서구 과학산단2로19번길 170(지사동),35.1524272,128.8124554
부산광역시 강서구 과학산단2로19번길 183 (지사동),35.1513581,128.8150173
부산광역시 강서구 과학산단2로19번길 19 (지사동),35.1502596,128.8286505
부산광역시 강서구 과학산단2로19번길 194(지사동),35.1503112,128.8104994
부산광역시 강서구 과학산단2로19번길 200 (지사동),35.1496951,128.8102936
부산광역시 강서구 과학산단2로19번길 25 (지사동),35.1504402,128.8279433
부산광역시 강서구 과학산단2로19번길 30 (지사동),35.1509099,128.827542
부산광역시 강서구 과학산단2로19번길 32 (지사동),35.1510132,128.8201298
부산광역시 강서구 과학산단2로19번길 33(지사동),35.1503936,128.827382
부산광역시 강서구 과학산단2로19번길 36 (지사동),35.1509659,128.8268687
부산광역시 강서구 과학산단2로19번길 37(지사동),35.1501669,128.8265193
부산광역시 강서구 과학산단2로19번길 42 (지사동),35.1510132,128.8201298
부산광역시 강서구 과학산단2로19번길 43 (지사동),35.1503033,128.825815
부산광역시 강서구 과학산단2로19번길 43(지사동),35.1503033,128.825815
부산광역시 강서구 과학산단2로19번길 46 (지사동),35.1509365,128.8261627
부산광역시 강서구 과학산단2로19번길 49 (지사동),35.1503313,128.8254191
부산광역시 강서구 과학산단2로19번길 50 (지사동),35.1510132,128.8201298
부산광역시 강서구 과학산단2로19번길 50(지사동),35.1510132,128.8201298
부산광역시 강서구 과학산단2로19번길 53 (지사동),35.1503811,128.8249872
부산광역시 강서구 과학산단2로19번길 57 (지사동),35.1502666,128.8239357
부산광역시 강서구 과학산단2로19번길 69 (지사동),35.1504167,128.8232041
부산광역시 강서구 과학산단2로19번길 73 (지사동),35.1504543,128.8224417
부산광역시 강서구 과학산단2로19번길 9 (지사동),35.1503927,128.8296165
부산광역시 강서구 과학산단2로19번길 99 (지사동),35.1513581,128.8150173
부산광역시 강서구 과학산단2로3번길 102(지사동),35.1509364,128.8206071
부산광역시 강서구 과학산단2로3번길 24 (지사동),35.1499162,128.8242016
부산광역시 강서구 과학산단2로3번길 26 (지사동),35.1497735,128.8277741
부산광역시 강서구 과학산단2로3번길 34 (지사동),35.1496217,128.8270285
부산광역시 강서구 과학산단2로3번길 40 (지사동),35.1496055,128.8266333
부산광역시 강서구 과학산단2로3번길 42 (지사동),35.1495867,128.8259438
부산광역시 강서구 과학산단2로3번길 50 (지사동),35.1494031,128.8255085
부산광역시 강서구 과학산단2로3번길 56 (지사동),35.1495019,128.8245042
부산광역시 강서구 과학산단2로3번길 56(지사동),35.1495019,128.8245042
부산광역시 강서구 과학산단2로3번길 6 (지사동),35.1496118,128.8294001
부산광역시 강서구 과학산단2로3번길 62 (지사동),35.1496713,128.8239824
부산광역시 강서구 과학산단2로3번길 68 (지사동),35.1496489,128.8235596
부산광역시 강서구 과학산단2로3번길 74 (지사동),35.1499162,128.8242016
부산광역시 강서구 과학산단2로3번길 76 (지사동),35.150057,128.8226704
부산광역시 강서구 과학산단2로3번길 88 (지사동),35.1503949,128.82163
부산광역시 강서구 과학산단2로42번길 11 (지사동),35.152777,128.8302109
부산광역시 강서구 과학산단2로42번길 21 (지사동),35.152777,128.8302109
부산광역시 강서구 과학산단2로42번길 3(지사동),35.152777,128.8302109
부산광역시 강서구 과학산단2로42번길 7 (지사동),35.152777,128.8302109
부산광역시 강서구 과학산단2로43번길 12 (지사동),35.152777,128.8302109
부산광역시 강서구 과학산단2로43번길 14 (지사동),35.152777,128.8302109
부산광역시 강서구 과학산단2로43번길 18 (지사동),35.152777,128.8302109
부산광역시 강서구 과학산단2로43번길 22 (지사동),35.152777,128.8302109
부산광역시 강서구 과학산단2로43번길 30 (지사동),35.152777,128.8302109
부산광역시 강서구 과학산단2로43번길 38 (지사동),35.152777,128.8302109
부산광역시 강서구 과학산단2로43번길 38(지사동),35.152777,128.8302109
부산광역시 강서구 과학산단2로43번길 50 (지사동),35.152777,128.8302109
부산광역시 강서구 과학산단2로43번길 50(지사동),35.152777,128.8302109
부산광역시 강서구 과학산단2로43번길 56 (지사동),35.152777,128.8302109
부산광역시 강서구 과학산단2로43번길 9 (지사동),35.152777,128.8302109
부산광역시 강서구 과학산단로 141 (구랑동),35.1399073,128.8477647
부산광역시 강서구 과학산단로 186 (지사동),35.1432638,128.8467713
부산광역시 강서구 과학산단로 194-11 (지사동),35.1456706,128.8330384
부산광역시 강서구 과학산단로 194-33 (지사동),35.1456706,128.8330384
부산광역시 강서구 과학산단로 381(지사동),35.1485505,128.827348
부산광역시 강서구 과학산단로 391(지사동),35.1467466,128.8311895
부산광역시 강서구 과학산단로 405 (지사동),35.1485207,128.8252373
부산광역시 강서구 과학산단로 409 (지사동),35.1483881,128.8244567
부산광역시 강서구 과학산단로 417 (지사동),35.1483657,128.8236312
부산광역시 강서구 과학산단로 421 (지사동),35.148693,128.823359
부산광역시 강서구 과학산단로 425 (지사동),35.1487865,128.8230055
부산광역시 강서구 과학산단로 437 (지사동),35.1491766,128.8218285
부산광역시 강서구 과학산단로 463(지사동),35.1492646,128.8188157
부산광역시 강서구 과학산단로 469 (지사동),35.1492471,128.8183359
부산광역시 강서구 과학산단로 473 (지사동),35.1492206,128.8177342
부산광역시 강서구 과학산단로 477 (지사동),35.1491048,128.8172579
부산광역시 강서구 과학산단로 483 (지사동),35.1491836,128.8167933
부산광역시 강서구 과학산단로 487 (지사동),35.149178,128.8162961
부산광역시 강서구 과학산단로 491 (지사동),35.1491247,128.8159136
부산광역시 강서구 과학산단로 491(지사동),35.1491247,128.8159136
부산광역시 강서구 과학산단로 495 (지사동),35.1490598,128.8149681
부산광역시 강서구 과학산단로 502 (지사동),35.1499139,128.8140931
부산광역시 강서구 과학산단로 509 (지사동),35.1488204,128.8139801
부산광역시 강서구 과학산단로 521 (지사동),35.1488778,128.8126791
부산광역시 강서구 과학산단로 529 (지사동),35.1491318,128.8115018
부산광역시 강서구 과학산단로 558 (지사동),35.1497109,128.808608
부산광역시 강서구 과학산단로305번길 57 (지사동),35.1471851,128.831262
부산광역시 강서구 과학산단로305번길 7 (지사동),35.1484629,128.8365528
부산광역시 강서구 과학산단로305번길 8 (지사동),35.1483636,128.8356639
부산광역시 강서구 과학산단로305번길 8(지사동),35.1483636,128.8356639
부산광역시 강서구 과학산단로333번길 107 (지사동),35.142068,128.8262267
부산광역시 강서구 과학산단로333번길 21 (지사동),35.1472274,128.8338985
부산광역시 강서구 과학산단로333번길 22 (지사동),35.1469561,128.8324438
부산광역시 강서구 과학산단로333번길 29 (지사동),35.1463159,128.8336544
부산광역시 강서구 과학산단로333번길 32 (지사동),35.1461009,128.8326755
부산광역시 강서구 과학산단로333번길 42 (지사동),35.1460042,128.8319172
부산광역시 강서구 과학산단로333번길 50 (지사동),35.1454884,128.8311668
"부산광역시 강서구 과학산단로333번길 50, (지사동,1214-5) (지사동)",35.1454884,128.8311668
부산광역시 강서구 과학산단로333번길 70 (지사동),35.1442716,128.8294436
부산광역시 강서구 과학산단로333번길 77-14 (지사동),35.1461873,128.8318086
부산광역시 강서구 과학산단로333번길 77-16 (지사동),35.1461873,128.8318086
부산광역시 강서구 과학산단로333번길 77-26 (지사동),35.1461873,128.8318086
부산광역시 강서구 과학산단로333번길 77-30 (지사동),35.1461873,128.8318086
부산광역시 강서구 과학산단로333번길 77-36 (지사동),35.1461873,128.8318086
부산광역시 강서구 과학산단로333번길 77-40 (지사동),35.1461873,128.8318086
부산광역시 강서구 과학산단로333번길 77-55 (지사동),35.1461873,128.8318086
부산광역시 강서구 과학산단로333번길 77-59 (지사동),35.1461873,128.8318086
부산광역시 강서구 과학산단로333번길 77-63 (지사동),35.1461873,128.8318086
부산광역시 강서구 과학산단로333번길 77-65 (지사동),35.1461873,128.8318086
부산광역시 강서구 과학산단로333번길 77-67 (지사동),35.1461873,128.8318086
부산광역시 강서구 과학산단로333번길 77-69 (지사동),35.1461873,128.8318086
부산광역시 강서구 과학산단로333번길 77-8 (지사동),35.1461873,128.8318086
부산광역시 강서구 과학산단로333번길 9 (지사동),35.1480038,128.8341172
부산광역시 강서구 과학산단로369번길 14 (지사동),35.1475249,128.8286337
부산광역시 강서구 과학산단로369번길 20 (지사동),35.1470762,128.828728
부산광역시 강서구 과학산단로369번길 20(지사동),35.1470762,128.828728
부산광역시 강서구 과학산단로369번길 21 (지사동),35.1471969,128.8294118
부산광역시 강서구 과학산단로369번길 26 (지사동),35.1465147,128.8289879
부산광역시 강서구 과학산단로369번길 28 (지사동),35.1460936,128.8291372
부산광역시 강서구 과학산단로369번길 33 (지사동),35.1464647,128.8301002
부산광역시 강서구 과학산단로369번길 34 (지사동),35.1459481,128.8295824
부산광역시 강서구 과학산단로369번길 6 (지사동),35.1484444,128.8286222
부산광역시 강서구 과학산단로369번길 9 (지사동),35.1483303,128.8292192
부산광역시 강서구 구랑동 1185-1번지,35.1257615,128.8563838
부산광역시 강서구 구랑동 1200번지,35.1257615,128.8563838
부산광역시 강서구 구랑동 1210-1번지,35.1257615,128.8563838
부산광역시 강서구 구랑동 1226-7번지,35.1213989,128.8588578
부산광역시 강서구 구랑동 1227-3번지,35.1208905,128.8582293
부산광역시 강서구 금호순서길 121-11 (대저2동),35.1609333,128.9530672
부산광역시 강서구 금호순서길 121-12 (대저2동),35.1606069,128.9524992
부산광역시 강서구 금호순서길 121-17 (대저2동),35.1604393,128.9529549
부산광역시 강서구 금호순서길 136 (대저2동),35.160984,128.9516529
부산광역시 강서구 금호순서길 142 (대저2동),35.1608936,128.9513489
부산광역시 강서구 금호순서길 145-19 (대저2동),35.1601391,128.9522676
부산광역시 강서구 금호순서길 220 (대저2동),35.1593758,128.9474183
부산광역시 강서구 금호순서길 60 (대저2동),35.1624263,128.9553183
부산광역시 강서구 금호순서길 64 (대저2동),35.1623677,128.9551991
부산광역시 강서구 금호순서길 66 (대저2동),35.1622087,128.9550205
부산광역시 강서구 금호순서길 69-10 (대저2동),35.1615037,128.9546918
부산광역시 강서구 금호순서길 8-17 (대저2동),35.1639588,128.9582725
부산광역시 강서구 금호순서길 82 (대저2동),35.1619523,128.9541548
부산광역시 강서구 금호순서길 85 (대저2동),35.1616296,128.9542651
부산광역시 강서구 금호순서길 90-24 (대저2동),35.1627588,128.9542948
부산광역시 강서구 금호순서길 98 (대저2동),35.1607159,128.9518893
부산광역시 강서구 금호순서길282번가길 194-17 (대저2동),35.161164,128.9360796
부산광역시 강서구 금호순서길282번나길 37-7 (대저2동),35.1619191,128.9441307
부산광역시 강서구 금호순서길282번나길 5 (대저2동),35.1611979,128.9429775
부산광역시 강서구 금호순서길89번가길 22 (대저2동),35.1602999,128.9534802
부산광역시 강서구 금호순서길89번가길 23 (대저2동),35.1597645,128.9537066
부산광역시 강서구 금호순서길89번가길 27 (대저2동),35.1596571,128.9534935
부산광역시 강서구 금호순서길89번가길 30 (대저2동),35.1599857,128.9532065
부산광역시 강서구 금호순서길89번가길 35 (대저2동),35.1595297,128.953188
부산광역시 강서구 금호순서길89번가길 38 (대저2동),35.1599051,128.9529125
부산광역시 강서구 금호순서길89번가길 46 (대저2동),35.1595683,128.9525211
부산광역시 강서구 금호순서길89번가길 46-1(대저2동),35.1595683,128.9525211
부산광역시 강서구 금호순서길89번가길 70 (대저2동),35.1593051,128.9525299
부산광역시 강서구 금호순서길89번길 10 (대저2동),35.161137,128.9538664
부산광역시 강서구 금호순서길89번길 24-10 (대저2동),35.1607952,128.9540007
부산광역시 강서구 금호순서길89번길 24-16 (대저2동),35.1606469,128.9536072
부산광역시 강서구 금호순서길89번길 65 (대저2동),35.1591105,128.9556066
부산광역시 강서구 금호순서길89번길 70 (대저2동),35.1588293,128.9554793
부산광역시 강서구 기러기길 18 (강동동),35.1601824,128.9149523
부산광역시 강서구 기러기길 50 (강동동),35.1606496,128.9164667
부산광역시 강서구 낙동남로 1048 (명지동),35.1122446,128.9273254
부산광역시 강서구 낙동남로 1058-1 (명지동),35.1118294,128.9285789
부산광역시 강서구 낙동남로 690 (녹산동),35.1078049,128.8704687
부산광역시 강서구 낙동남로1013번길 19 (명지동),35.1154138,128.9250173
부산광역시 강서구 낙동남로1013번길 25 (명지동),35.1154138,128.9250173
부산광역시 강서구 낙동남로1013번길 37 (명지동),35.1154749,128.9244165
부산광역시 강서구 낙동남로1013번길 42 (명지동),35.1149529,128.9256096
부산광역시 강서구 낙동남로1013번길 42-1 (명지동),35.1148382,128.9258749
"부산광역시 강서구 낙동남로1013번길 42-1, 다온이엔지(명지동)",35.1148382,128.9258749
"부산광역시 강서구 낙동남로1013번길 45, 1층(명지동)",35.1154138,128.9250173
부산광역시 강서구 낙동남로1013번길 50 (명지동),35.1154138,128.9250173
부산광역시 강서구 낙동남로1013번길 58 (명지동),35.1154138,128.9250173
부산광역시 강서구 낙동남로456번길 25-10 (녹산동),35.1115601,128.8712294
부산광역시 강서구 낙동남로456번길 25-17 (녹산동),35.1118934,128.8711342
부산광역시 강서구 낙동남로456번길 25-24 (녹산동),35.1116763,128.8716233
부산광역시 강서구 낙동남로456번길 25-31 (녹산동),35.1120585,128.8718687
부산광역시 강서구 낙동남로456번길 25-42 (녹산동),35.1183026,128.883325
부산광역시 강서구 낙동남로456번길 25-8 (녹산동),35.1115601,128.8712294
부산광역시 강서구 낙동남로483번길 32 (녹산동),35.1130364,128.871255
부산광역시 강서구 낙동남로483번길 42 (녹산동),35.1128572,128.8707331
부산광역시 강서구 낙동남로511번길 11 (녹산동),35.1227667,128.8961624
부산광역시 강서구 낙동남로511번길 17 (녹산동),35.1186018,128.8878876
부산광역시 강서구 낙동남로511번길 18(녹산동),35.1190202,128.8852855
부산광역시 강서구 낙동남로511번길 26 (녹산동),35.1214774,128.8948679
부산광역시 강서구 낙동남로511번길 43 (녹산동),35.1196598,128.8941744
부산광역시 강서구 낙동남로511번길 49 (녹산동),35.1201249,128.893575
부산광역시 강서구 낙동남로511번길 55 (녹산동),35.1204874,128.8953936
부산광역시 강서구 낙동남로511번길 67 (녹산동),35.1206998,128.893115
부산광역시 강서구 낙동남로533번길 100 (녹산동),35.1147679,128.8923449
부산광역시 강서구 낙동남로533번길 14 (녹산동),35.1221416,128.8863001
부산광역시 강서구 낙동남로533번길 15 (녹산동),35.121138,128.8880655
부산광역시 강서구 낙동남로533번길 21 (녹산동),35.1178222,128.8876334
부산광역시 강서구 낙동남로533번길 22(녹산동),35.1165341,128.8876228
부산광역시 강서구 낙동남로533번길 27 (녹산동),35.1213735,128.895016
부산광역시 강서구 낙동남로533번길 30 (녹산동),35.1213572,128.8962555
부산광역시 강서구 낙동남로533번길 36 (녹산동),35.1198249,128.8959864
부산광역시 강서구 낙동남로533번길 41 (녹산동),35.1194623,128.8950433
"부산광역시 강서구 낙동남로533번길 41, B동 (녹산동)",35.1152632,128.8774645
부산광역시 강서구 낙동남로533번길 55 (녹산동),35.1204874,128.8953936
부산광역시 강서구 낙동남로533번길 63 (녹산동),35.121109,128.8938556
부산광역시 강서구 낙동남로533번길 71 (녹산동),35.119543,128.8919274
부산광역시 강서구 낙동남로533번길 74 (녹산동),35.119929,128.8933688
부산광역시 강서구 낙동남로533번길 75 (녹산동),35.1199139,128.8930944
부산광역시 강서구 낙동남로533번길 83 (녹산동),35.1185697,128.8922613
부산광역시 강서구 낙동남로533번길 86 (녹산동),35.1187332,128.8940524
부산광역시 강서구 낙동남로533번길 89 (녹산동),35.1181197,128.8937605
부산광역시 강서구 낙동남로533번길 95 (녹산동),35.1123917,128.865501
부산광역시 강서구 낙동남로533번길 96(녹산동),35.111915,128.8654762
부산광역시 강서구 낙동남로533번길 99 (녹산동),35.1186034,128.8913599
부산광역시 강서구 낙동남로549번길 12 (녹산동),35.1246665,128.8963444
부산광역시 강서구 낙동남로549번길 16 (녹산동),35.1193497,128.8891563
부산광역시 강서구 낙동남로549번길 21 (녹산동),35.1178222,128.8876334
부산광역시 강서구 낙동남로549번길 24 (녹산동),35.117329,128.8851828
부산광역시 강서구 낙동남로549번길 29 (녹산동),35.1215393,128.8953996
부산광역시 강서구 낙동남로549번길 34 (녹산동),35.1210911,128.8960321
부산광역시 강서구 낙동남로583번길 62-1 (녹산동),35.1149217,128.8827817
부산광역시 강서구 낙동남로583번길 66 (녹산동),35.1141446,128.8832362
부산광역시 강서구 낙동남로583번길 70 (녹산동),35.1141446,128.8832362
부산광역시 강서구 낙동남로605번길 24-15 (녹산동),35.114665,128.8846164
부산광역시 강서구 낙동남로605번길 24-21 (녹산동),35.114665,128.8846164
부산광역시 강서구 낙동남로605번길 24-9 (녹산동),35.114665,128.8846164
부산광역시 강서구 낙동남로605번길 32 (녹산동),35.1148568,128.8845099
부산광역시 강서구 낙동남로605번길 46-16 (녹산동),35.1152379,128.8844164
부산광역시 강서구 낙동남로605번길 46-21(녹산동),35.1152379,128.8844164
부산광역시 강서구 낙동남로605번길 46-24 (녹산동),35.1200521,128.8942742
부산광역시 강서구 낙동남로605번길 46-25 (녹산동),35.1200521,128.8942742
부산광역시 강서구 낙동남로605번길 46-29 (녹산동),35.1152379,128.8844164
부산광역시 강서구 낙동남로605번길 46-33 (녹산동),35.1152379,128.8844164
부산광역시 강서구 낙동남로605번길 46-9 (녹산동),35.1152379,128.8844164
부산광역시 강서구 낙동남로605번길 58 (녹산동),35.1147592,128.8833065
부산광역시 강서구 낙동남로605번길 60 (녹산동),35.1147454,128.883223
부산광역시 강서구 낙동남로622번길 11 (녹산동),35.1133252,128.8890969
부산광역시 강서구 낙동남로622번길 23 (녹산동),35.1133252,128.8890969
부산광역시 강서구 낙동남로622번길 23-1 (녹산동),35.1133252,128.8890969
부산광역시 강서구 낙동남로622번길 47 (녹산동),35.1133252,128.8890969
부산광역시 강서구 낙동남로622번길 47-1 (녹산동),35.1202124,128.8941728
부산광역시 강서구 낙동남로622번길 51 (녹산동),35.113477,128.8895346
부산광역시 강서구 낙동남로622번길 51-1 (녹산동),35.1135625,128.8895542
부산광역시 강서구 낙동남로622번길 55 (녹산동),35.1133252,128.8890969
부산광역시 강서구 낙동남로622번길 57 (녹산동),35.1133252,128.8890969
부산광역시 강서구 낙동남로622번길 62 (녹산동),35.1128618,128.889348
부산광역시 강서구 낙동남로622번길 71 (녹산동),35.113012,128.8902546
부산광역시 강서구 낙동남로622번길 72-1 (녹산동),35.1123038,128.8895997
부산광역시 강서구 낙동남로622번길 75 (녹산동),35.1127764,128.8904155
부산광역시 강서구 낙동남로622번길 75-1 (녹산동),35.1130583,128.890695
부산광역시 강서구 낙동남로622번길 78 (녹산동),35.1133252,128.8890969
부산광역시 강서구 낙동남로622번길 78-1 (녹산동),35.1191769,128.8920704
"부산광역시 강서구 낙동남로622번길 78-2, (주)국제환경기술 (녹산동)",35.1133252,128.8890969
부산광역시 강서구 낙동남로622번길 80 (녹산동),35.1133252,128.8890969
